Namn,Typ,Kategori,Gata,Nr,Lat,Lon,Stadsdel
Marino,restaurant,Restaurang & Snabbmat,Klubbacken,51,59.305325,17.9632902,
Hemköp Stockholm Älvsjö,supermarket,Matbutik,Sjättenovembervägen,208,59.2787519,18.00228,
OKQ8,fuel,Bensinmack,Kontrollvägen,N/A,59.2944349,18.0025876,Västberga
Circle K,fuel,Bensinmack,Nioörtsvägen,N/A,59.2999537,18.012147,Västberga
McDonald's,fast_food,Restaurang & Snabbmat,Lerkrogsvägen,N/A,59.2930743,18.0012108,Västberga
Coop Västertorp,supermarket,Matbutik,Störtloppsvägen,17,59.2927384,17.9676426,
Hemköp Hägersten Västertorp,supermarket,Matbutik,Störtloppsvägen,22,59.2930981,17.9677873,
Sushi Bar,restaurant,Restaurang & Snabbmat,Störtloppsvägen,N/A,59.2924236,17.9679342,Västertorp
Lekplats,playground,Lekplats,Långsjöhöjden,N/A,59.2647808,17.9840719,Långsjö
Lekplats,playground,Lekplats,Långbrodalsvägen,N/A,59.2715724,17.9845487,Långsjö
ST1,fuel,Bensinmack,Elektravägen,33,59.2946662,18.0099656,
Apoteket,pharmacy,Apotek,Fruängstorget,6,59.2857782,17.9646066,
Systembolaget,alcohol,Systembolag,Fruängsgången,10,59.2856716,17.9638677,
Solberga restaurang,restaurant,Restaurang & Snabbmat,Klacktorget,4,59.2869324,18.0104442,
Stora Coop Västberga,supermarket,Matbutik,Västbergavägen,4,59.2937143,18.0046482,
Willys Stockholm Älvsjö,supermarket,Matbutik,Älvsjö Ängsväg,2-6,59.2753,18.0132,
ICA Supermarket,supermarket,Matbutik,Sjövikstorget,N/A,59.3073101,18.0296528,Liljeholmen
E4-baren,fast_food,Restaurang & Snabbmat,Kristallvägen,156,59.2897345,18.0023026,
Cafe Vintervikens Trädgård,cafe,Kafé,Vinterviksvägen,30,59.3112368,17.9990416,
Coop Gröndal,supermarket,Matbutik,Gröndalsvägen,N/A,59.3160917,18.0116571,Gröndal
Ekensbergs Pizza,fast_food,Restaurang & Snabbmat,Gröndalsvägen,N/A,59.3148143,17.9953198,Gröndal
Lundbergs konditori,cafe,Kafé,Sjöbjörnsvägen,N/A,59.3160215,18.0103222,Gröndal
Gröndals Sushi Kök,restaurant,Restaurang & Snabbmat,Gröndalsvägen,N/A,59.3158464,18.0136582,Gröndal
Tre Vänner,restaurant,Restaurang & Snabbmat,Svandammsvägen,N/A,59.3014183,18.0120339,Midsommarkransen
Tegelbruket,cafe,Kafé,Svandammsvägen,N/A,59.3020479,18.0153506,Midsommarkransen
Restaurant Kransen,restaurant,Restaurang & Snabbmat,Nybodagatan,N/A,59.3022631,18.0148264,Midsommarkransen
Pita i parken,restaurant,Restaurang & Snabbmat,Svandammsvägen,N/A,59.301094,18.0069063,Midsommarkransen
Tellus,cinema,Biograf,Vattenledningsvägen,N/A,59.3019888,18.0075991,Midsommarkransen
OKQ8 Hägersten,fuel,Bensinmack,Elsa Brändströms Gata,N/A,59.2876582,17.9800825,Fruängen
ICA Nära Telefonplan,supermarket,Matbutik,Telefonvägen,20,59.2988217,17.9969403,
Pizzeria Italia,fast_food,Restaurang & Snabbmat,Cedergrensvägen,N/A,59.3001157,17.9957628,Midsommarkransen
Best on the best,restaurant,Restaurang & Snabbmat,LM Ericssons Väg,N/A,59.29991,17.9959046,Midsommarkransen
Landet,restaurant,Restaurang & Snabbmat,Valborgsmässovägen,N/A,59.2991679,17.9962667,Midsommarkransen
Lurparken,playground,Lekplats,Huvudfabriksgatan,N/A,59.3009202,17.9933312,Midsommarkransen
Telegrillen,fast_food,Restaurang & Snabbmat,Mikrofonvägen,N/A,59.2979103,17.9971428,Midsommarkransen
JJ's,fast_food,Restaurang & Snabbmat,Främlingsvägen,N/A,59.3039515,18.0036438,Midsommarkransen
Coop Älvsjö,supermarket,Matbutik,Älvsjö Torg,4,59.2790528,18.0099095,
Gröndals grill & pizza,fast_food,Restaurang & Snabbmat,Gröndalsvägen,N/A,59.3158038,18.0095939,Gröndal
Gröndals bibliotek,library,Bibliotek,Gröndalsvägen,N/A,59.3161337,18.0121677,Gröndal
Gandhi,restaurant,Restaurang & Snabbmat,Sjöbjörnsvägen,N/A,59.316601,18.0083698,Gröndal
Hägern,restaurant,Restaurang & Snabbmat,Inteckningsvägen,84,59.2944861,17.9809865,
Ica,supermarket,Matbutik,Sparbanksvägen,N/A,59.2971133,17.982747,Hägerstensåsen
Indian Lotus,restaurant,Restaurang & Snabbmat,Riksdalervägen,N/A,59.2974935,17.9843719,Hägerstensåsen
Da Dante,restaurant,Restaurang & Snabbmat,Brådstupsvägen,N/A,59.3040862,17.9591433,Hägersten
Villa Fridhem,restaurant,Restaurang & Snabbmat,Mälarhöjdsvägen,2,59.3016308,17.956049,
Coop Örnsberg,supermarket,Matbutik,Junkergatan,27,59.3057786,17.9895142,
Wintervikens cafe,cafe,Kafé,Vinterviksvägen,60,59.3116377,17.9921168,
Pizzeria Sorrento,fast_food,Restaurang & Snabbmat,Störtloppsvägen,26,59.2933579,17.9675477,
Nickys Thai,restaurant,Restaurang & Snabbmat,Styrbjörnsvägen,N/A,59.3094687,18.0026802,Aspudden
Coop Aspudden,supermarket,Matbutik,Fågeltorget,N/A,59.3053907,17.9932874,Aspudden
Tellus Restaurang,restaurant,Restaurang & Snabbmat,Dialoggatan,11,59.2991966,17.9924373,
"ICA Hallen, Axelsberg",supermarket,Matbutik,Selmedalsvägen,38,59.3048107,17.9755631,Hägersten
Mix Thai,fast_food,Restaurang & Snabbmat,Doktor Widerströms Gata,1,59.2840405,17.9578914,
Hemköp Stockholm Fruängen C,supermarket,Matbutik,Fruängsgången,10,59.2856612,17.9646492,
Bankomat,restaurant,Restaurang & Snabbmat,Sjövikskajen,N/A,59.3076959,18.0305063,Liljeholmen
Nästan hemma,cafe,Kafé,Slättgårdsvägen,1,59.3009248,17.957392,Hägersten
Lekplats,playground,Lekplats,Klubbensborgsvägen,N/A,59.3048245,17.9590871,Hägersten
Långpannan,restaurant,Restaurang & Snabbmat,Elsa Borgs Gata,N/A,59.2829973,17.9647493,Fruängen
Coop Fruängen,supermarket,Matbutik,Fruängsgången,3,59.2854719,17.9653558,
Lucky,fast_food,Restaurang & Snabbmat,Örnsbergsvägen,N/A,59.3054372,17.98887,Aspudden
Woktory,restaurant,Restaurang & Snabbmat,Ellen Keys Gata,75,59.2846844,17.9662449,
Fruängens Läkarhus,doctor,Vårdcentral,Fruängsgången,2,59.2855867,17.9667241,
Bella Donna,fast_food,Restaurang & Snabbmat,Fruängsgatan,N/A,59.2853202,17.9631433,Fruängen
Grillhörnan,fast_food,Restaurang & Snabbmat,Fruängsplan,N/A,59.2857793,17.9652246,Fruängen
Fruängens bibliotek,library,Bibliotek,Fruängsgången,N/A,59.2856698,17.9654212,Fruängen
Bigges,fast_food,Restaurang & Snabbmat,Fruängsgatan,N/A,59.2852617,17.9646355,Fruängen
Cafékoppen,cafe,Kafé,Fruängstorget,4,59.2858337,17.9634488,
66 Kvadrat Sushi,restaurant,Restaurang & Snabbmat,Fruängsgatan,N/A,59.2847551,17.9618674,Fruängen
Pizzeria Tropicana,fast_food,Restaurang & Snabbmat,Vasaloppsvägen,N/A,59.2937875,17.9655034,Västertorp
Apotek Hjärtat,pharmacy,Apotek,Störtloppsvägen,N/A,59.2940587,17.9669036,Västertorp
Kronans Apotek,pharmacy,Apotek,Annebodavägen,4-6,59.2847122,18.0301247,
Kronans Apotek,pharmacy,Apotek,Telefonplan,N/A,59.2986734,17.9970116,Midsommarkransen
Pepe Nero,restaurant,Restaurang & Snabbmat,Tivolivägen,2,59.2951017,18.0048473,
Circle K Truckdiesel,fuel,Bensinmack,Vretensborgsvägen,N/A,59.2994785,18.0199642,Västberga
Pizzeria Spader Dam,restaurant,Restaurang & Snabbmat,Jenny Linds Gata,N/A,59.2882766,17.9686475,Fruängen
Restaurang & Snabbmat,fast_food,Restaurang & Snabbmat,Störtloppsvägen,N/A,59.2921669,17.9681563,Västertorp
Korfu Orfa,restaurant,Restaurang & Snabbmat,Sparbanksvägen,N/A,59.2976427,17.9826086,Hägerstensåsen
Wong Kee,restaurant,Restaurang & Snabbmat,Grönbrinksgatan,N/A,59.3069965,18.0290177,Liljeholmen
Gröna Dalen,restaurant,Restaurang & Snabbmat,Gröndalsvägen,N/A,59.3160058,18.0111341,Gröndal
Thai Rung,restaurant,Restaurang & Snabbmat,Liljeholmstorget,N/A,59.3104328,18.0223051,Liljeholmen
Di Metro,fast_food,Restaurang & Snabbmat,Liljeholmstorget,N/A,59.3101026,18.0220192,Liljeholmen
McDonald's,fast_food,Restaurang & Snabbmat,Liljeholmstorget,N/A,59.3104032,18.0229847,Liljeholmen
Coop Liljeholmen,supermarket,Matbutik,Liljeholmstorget,N/A,59.3106203,18.0235883,Liljeholmen
Äldreboendet Trekanten,restaurant,Restaurang & Snabbmat,Trekantsstranden,N/A,59.3134648,18.0181386,Liljeholmen
Liljeholmens Grill,fast_food,Restaurang & Snabbmat,Liljeholmstorget,N/A,59.3100673,18.0218658,Liljeholmen
KFC,fast_food,Restaurang & Snabbmat,Liljeholmstorget,N/A,59.3097444,18.0221382,Liljeholmen
Bravo,cafe,Kafé,Liljeholmstorget,N/A,59.3101203,18.0232131,Liljeholmen
Lidl,supermarket,Matbutik,Liljeholmstorget,N/A,59.3100484,18.0233359,Liljeholmen
Bara Vedugnspizza,restaurant,Restaurang & Snabbmat,Örby Slottsväg,48,59.2797601,18.0342466,
Bella Notte,restaurant,Restaurang & Snabbmat,Tegelbruksvägen,N/A,59.3023424,18.0141062,Midsommarkransen
Sats,fitness_centre,Gym/Utomhusgym,Buteljgatan,N/A,59.3091841,18.0284825,Liljeholmen
Koi Sushi,fast_food,Restaurang & Snabbmat,Hägerstensvägen,N/A,59.3053498,17.9975035,Aspudden
Mama Ye's,restaurant,Restaurang & Snabbmat,Sjövikstorget,N/A,59.3075449,18.0301795,Liljeholmen
ICA Kvantum Liljeholmen,supermarket,Matbutik,Liljeholmstorget,N/A,59.3094423,18.0222688,Liljeholmen
Willys,supermarket,Matbutik,Nybohovsbacken,N/A,59.3093766,18.0211932,Liljeholmen
Brisket & friends,fast_food,Restaurang & Snabbmat,Upplagsvägen,N/A,59.2994274,18.0216412,Västberga
Morningstar Cafe,restaurant,Restaurang & Snabbmat,Drivhjulsvägen,N/A,59.2967508,18.019543,Västberga
Coop Midsommarkransen,supermarket,Matbutik,Svandammsvägen,20,59.301647,18.0124794,
Svenska Sushiköket,restaurant,Restaurang & Snabbmat,Tellusborgsvägen,76,59.3003552,18.0040262,
Pizzeria Fellini,fast_food,Restaurang & Snabbmat,Midsommarvägen,N/A,59.300644,18.0121602,Midsommarkransen
Kransens Wok,fast_food,Restaurang & Snabbmat,Tegelbruksvägen,N/A,59.3031402,18.0127352,Midsommarkransen
Tellus Pizza,fast_food,Restaurang & Snabbmat,Vattenledningsvägen,N/A,59.3020127,18.0082047,Midsommarkransen
Nygammalt,restaurant,Restaurang & Snabbmat,Vattenledningsvägen,N/A,59.2998782,18.0046563,Midsommarkransen
Pino,fast_food,Restaurang & Snabbmat,Nioörtsvägen,N/A,59.301504,18.0160105,Midsommarkransen
The Swan,restaurant,Restaurang & Snabbmat,Erikslundsgatan,N/A,59.3006861,18.014473,Midsommarkransen
Restaurang Udden,restaurant,Restaurang & Snabbmat,Schlytersvägen,N/A,59.3064868,18.006486,Aspudden
Älvsjö bibliotek,library,Bibliotek,Älvsjö Stationsgata,N/A,59.2781677,18.0078331,Älvsjö
Lekplats,playground,Lekplats,Sedelvägen,N/A,59.296161,17.9808213,Hägerstensåsen
Chicha 08,restaurant,Restaurang & Snabbmat,Ingenjörsvägen,N/A,59.3064952,18.0256387,Liljeholmen
Pepe Nero,restaurant,Restaurang & Snabbmat,Sjöviksvägen,N/A,59.3060136,18.032393,Liljeholmen
Telefonplans bibliotek,library,Bibliotek,Telefonplan,N/A,59.2989246,17.9966603,Midsommarkransen
OKQ8,fuel,Bensinmack,Elisabeth Tamms Gata,1,59.2849919,17.954975,
Roots & Soil,restaurant,Restaurang & Snabbmat,Årstaängsvägen,N/A,59.3097676,18.028177,Liljeholmen
Lekplats,playground,Lekplats,Hövdingagatan,N/A,59.3063786,17.9972313,Aspudden
Lekplats,playground,Lekplats,Torsten Almsstigen,N/A,59.307586,17.9948105,Aspudden
Lisebergs Café & Matsal,restaurant,Restaurang & Snabbmat,Annebodavägen,23-25,59.2871214,18.0266966,
Lekplats,playground,Lekplats,Torsten Alms Gata,N/A,59.3094183,17.9942857,Aspudden
Lekplats,playground,Lekplats,Långbrodalsvägen,N/A,59.2717013,17.9846451,Långsjö
Lekplats,playground,Lekplats,Långbrodalsvägen,N/A,59.2721591,17.985962,Långsjö
Hinode Sushi,fast_food,Restaurang & Snabbmat,Götalandsvägen,253,59.2793638,18.004151,
Bapuji,restaurant,Restaurang & Snabbmat,Älvsjövägen,2,59.2783471,18.0063075,
Lekplats,playground,Lekplats,Slalomvägen,N/A,59.2918792,17.9751361,Västertorp
Älvgården Kök & Bar,restaurant,Restaurang & Snabbmat,Älvsjövägen,7,59.2780961,18.0061133,
Vår Pizza,restaurant,Restaurang & Snabbmat,Johan Skyttes Väg,218,59.277762,18.0018118,
Cafe Gården,cafe,Kafé,Sedelvägen,20,59.2961996,17.9830405,
Aspuddens apotek,pharmacy,Apotek,Erik Segersälls Väg,N/A,59.3061293,18.000954,Aspudden
Bombay Taj,restaurant,Restaurang & Snabbmat,Hägerstensvägen,N/A,59.3055028,18.0031363,Aspudden
Mums,fast_food,Restaurang & Snabbmat,Hägerstensvägen,N/A,59.305703,18.001019,Aspudden
EPA,fast_food,Restaurang & Snabbmat,Hägerstensvägen,N/A,59.3054736,18.0018403,Aspudden
Aspuddens bibliotek,library,Bibliotek,Hägerstensvägen,N/A,59.3054669,18.0015478,Aspudden
Gröndals Apotek,pharmacy,Apotek,Gröndalsvägen,N/A,59.316151,18.0123077,Gröndal
Lekplats,playground,Lekplats,Metronomgatan,N/A,59.297741,18.000378,Västberga
Lekplats,playground,Lekplats,Metronomgatan,N/A,59.2978478,18.0005014,Västberga
Café Hitom,cafe,Kafé,Klaviaturgatan,11,59.2979163,18.0001688,
Café Momo,cafe,Kafé,Liljeholmstorget,N/A,59.3098599,18.0217484,Liljeholmen
Delfin,restaurant,Restaurang & Snabbmat,Gröndalsvägen,N/A,59.3151188,18.0149853,Gröndal
DIN-DIN Club,restaurant,Restaurang & Snabbmat,Sjövikstorget,N/A,59.3081563,18.0291693,Liljeholmen
German Beer Hall Liljeholmen,restaurant,Restaurang & Snabbmat,Buteljgatan,N/A,59.3083331,18.0296139,Liljeholmen
Älvsjö Pizzeria,restaurant,Restaurang & Snabbmat,Älvsjövägen,90,59.2849116,17.9931883,
Memozin Kolgrill,restaurant,Restaurang & Snabbmat,Älvsjövägen,90,59.2848081,17.9933848,
Långbro Pizzeria,fast_food,Restaurang & Snabbmat,Svartlösavägen,79,59.2809246,17.9860678,
SATS Älvsjö,fitness_centre,Gym/Utomhusgym,Götalandsvägen,N/A,59.2810159,18.0142423,Älvsjö
Klockhusköket,restaurant,Restaurang & Snabbmat,Glasfibergatan,6,59.2808036,18.0013698,
Stoff,cafe,Kafé,Klubbevägen,N/A,59.273582,17.9954645,Långsjö
Megagrillen,fast_food,Restaurang & Snabbmat,Johan Skyttes Väg,188,59.278964,18.0084016,
Hökmossens kaffestuga,restaurant,Restaurang & Snabbmat,Hökmossevägen,22,59.2919271,17.9951927,
Cafe Elektra,cafe,Kafé,Elektravägen,33,59.2943422,18.0090461,
IDS,fuel,Bensinmack,Upplagsvägen,N/A,59.2990961,18.0220276,Västberga
Bakstugan i Västertorp,cafe,Kafé,Vasaloppsvägen,N/A,59.294539,17.9668412,Västertorp
Shinto Restaurang,restaurant,Restaurang & Snabbmat,Solberga Hagväg,5,59.279555,18.0086807,
Svenska Hamburgerköket,fast_food,Restaurang & Snabbmat,Tellusborgsvägen,78,59.3001133,18.0039844,
Kronans Apotek,pharmacy,Apotek,Västbergavägen,4,59.2935847,18.0048911,
Indian Garden,restaurant,Restaurang & Snabbmat,Sjövikstorget,N/A,59.3079045,18.0286974,Liljeholmen
Sushi Ureshii,restaurant,Restaurang & Snabbmat,Sedelvägen,28,59.296068,17.9823624,
Staffans trafikskola,driving_school,Trafikskola,Långbrodalsvägen,N/A,59.2799024,18.0011743,Liseberg
Parma Kök & Bar,restaurant,Restaurang & Snabbmat,Fruängstorget,12,59.2857916,17.96335,
Segeltorps trafikskola,driving_school,Trafikskola,Gamla Södertäljevägen,N/A,59.2836671,17.9573967,Fruängen
Chong Qing,restaurant,Restaurang & Snabbmat,Liljeholmsvägen,N/A,59.3128576,18.028359,Liljeholmen
Chamsin Grill,fast_food,Restaurang & Snabbmat,Liljeholmsvägen,N/A,59.3128175,18.0281034,Liljeholmen
Vivels,cafe,Kafé,Älvsjö Torg,6,59.2790794,18.0093028,
JM Movement,physiotherapist,Fysioterapeut,Örby Slottsväg,N/A,59.2807721,18.0328046,Örby slott
Älvsjö Öron-näsa-hals,doctor,Vårdcentral,Johan Skyttes Väg,198,59.278468,18.0069728,
Butsaya,restaurant,Restaurang & Snabbmat,Midsommargränd,N/A,59.2990374,18.0034908,Västberga
Snabb & Lugn Café,cafe,Kafé,Älvsjö Stationsgata,11,59.2784904,18.0108359,
Lius kök,restaurant,Restaurang & Snabbmat,Vantörsvägen,279,59.2862001,17.9531322,
Fitness24Seven,fitness_centre,Gym/Utomhusgym,Johan Skyttes Väg,N/A,59.2787812,18.0080853,Älvsjö
Lekplats,playground,Lekplats,Hägerstensvägen,N/A,59.3010494,17.9565868,Mälarhöjden
Utegym,fitness_station,Gym/Utomhusgym,Älvsjöskogens elljusspår,N/A,59.2709035,17.9947649,Långsjö
Spiskroken,restaurant,Restaurang & Snabbmat,Västbergavägen,N/A,59.2928504,18.0082976,Västberga
Älvsjö Tandläkaren,dentist,Tandläkare,Johan Skyttes Väg,202,59.2780057,18.0059938,
Mejram,restaurant,Restaurang & Snabbmat,Karusellplan,N/A,59.2981398,18.0105611,Västberga
Asian Garden,restaurant,Restaurang & Snabbmat,Karusellplan,N/A,59.2980092,18.0104411,Västberga
Istanbul Kolgrill,restaurant,Restaurang & Snabbmat,Västberga gårdsväg,N/A,59.2915406,18.012289,Västberga
Västbergakällan,restaurant,Restaurang & Snabbmat,Drivhjulsvägen,N/A,59.2959258,18.0176833,Västberga
Västberga Grillen,restaurant,Restaurang & Snabbmat,Vretensborgsvägen,20,59.299127,18.0160865,
Nancys Freshfood,restaurant,Restaurang & Snabbmat,Vretensborgsvägen,N/A,59.2985196,18.0146522,Västberga
ST1,fuel,Bensinmack,Vasaloppsvägen,N/A,59.2966942,17.973784,Västertorp
R Han Thai Take Away,fast_food,Restaurang & Snabbmat,Safirgränd,N/A,59.2918739,17.99975,Solberga
WKB Västberga,restaurant,Restaurang & Snabbmat,Västberga Allé,36,59.293817,18.0111796,
Erik's,restaurant,Restaurang & Snabbmat,Sjöviksbacken,N/A,59.3045093,18.0304702,Liljeholmen
The meeting bar & restaurant,restaurant,Restaurang & Snabbmat,Hägerstensvägen,N/A,59.3050438,17.9921902,Aspudden
Tokai sushi,restaurant,Restaurang & Snabbmat,Tellusgången,27,59.2987356,17.990757,
Restaurang & Snabbmat,fast_food,Restaurang & Snabbmat,Störtloppsvägen,N/A,59.2919715,17.9684317,Västertorp
La Favorita,restaurant,Restaurang & Snabbmat,Bäckvägen,N/A,59.3016611,17.9883394,Hägerstensåsen
Il Forno di Fruängen,restaurant,Restaurang & Snabbmat,Vantörsvägen,282,59.286271,17.9508633,
Lekplats,playground,Lekplats,Piruettvägen,N/A,59.2936135,17.9785679,Hägerstensåsen
GAIA,restaurant,Restaurang & Snabbmat,Vattenledningsvägen,N/A,59.3024341,18.0086666,Midsommarkransen
Lekplats,playground,Lekplats,Västertorpsvägen,N/A,59.2910324,17.97352,Västertorp
Lekplats,playground,Lekplats,Skridskovägen,N/A,59.2929672,17.9759926,Västertorp
Lekplats,playground,Lekplats,Skridskovägen,N/A,59.2927575,17.974138,Västertorp
Pizza Örnsberg,fast_food,Restaurang & Snabbmat,Junkergatan,N/A,59.3059603,17.9915981,Aspudden
Hägerstens tandvårdsteam,dentist,Tandläkare,Sparbanksvägen,20-22,59.2975127,17.9826565,
Verkets Matsal,restaurant,Restaurang & Snabbmat,Näbbskostigen,N/A,59.2895192,18.0159371,Västberga
Rain,restaurant,Restaurang & Snabbmat,Tellusborgsvägen,84,59.2994428,18.0034208,
Ica Nära Älvsjö,supermarket,Matbutik,Svartlösavägen,181,59.2726121,17.9779185,
Lycka Thai & Sushi,fast_food,Restaurang & Snabbmat,Snöripsvägen,N/A,59.2729767,17.9777737,Långsjö
Thanita's Thai,fast_food,Restaurang & Snabbmat,Bäckvägen,141a,59.3012951,17.9865035,
Kafé,cafe,Kafé,Personnevägen,N/A,59.2980588,17.9760594,Hägersten
Kronans Apotek,pharmacy,Apotek,Älvsjökopplet,N/A,59.2750688,18.0130154,Liseberg
Puls och Träning,fitness_centre,Gym/Utomhusgym,Sjöviksbacken,N/A,59.3061169,18.031891,Liljeholmen
itrim,fitness_centre,Gym/Utomhusgym,Liljeholmsvägen,N/A,59.3126201,18.0261071,Liljeholmen
Apoteket,pharmacy,Apotek,Älvsjö Torg,17A,59.2785746,18.0090219,
Lekplats,playground,Lekplats,Toffelbacken,N/A,59.286065,18.01502,Solberga
Hinode Wok,fast_food,Restaurang & Snabbmat,Älvsjö Torg,15A,59.2786381,18.0093297,
Systembolaget,alcohol,Systembolag,Västbergavägen,N/A,59.2939589,18.0039519,Västberga
Krubb,restaurant,Restaurang & Snabbmat,Telefonvägen,22,59.298455,17.9953077,
CASA del LAGO,restaurant,Restaurang & Snabbmat,Strandängsstigen,N/A,59.2653194,17.9754574,Långsjö
Kafé,cafe,Kafé,Gårdstigen,N/A,59.2653765,17.9753585,Långsjö
Lekplats,playground,Lekplats,Långsjövägen,N/A,59.2689866,17.9699271,Långsjö
Herrängens gård,cafe,Kafé,Segeltorpsvägen,49-51,59.273165,17.9608766,
Subway,fast_food,Restaurang & Snabbmat,Älvsjö Torg,13B,59.2786951,18.0094843,
Wild Flower Bakehouse Café,cafe,Kafé,Kransbindarvägen,N/A,59.3024732,18.001802,Midsommarkransen
Jarla Trafikskola,driving_school,Trafikskola,Johan Skyttes Väg,189C,59.278502,18.0080988,
Stenugnsbröd På Söder,cafe,Kafé,Svandammsvägen,N/A,59.3014783,18.0130327,Midsommarkransen
Pizza,fast_food,Restaurang & Snabbmat,Aklejavägen,N/A,59.2772451,17.9660733,Älvsjö
Lekplats,playground,Lekplats,Kristallvägen,N/A,59.2877577,18.0013176,Solberga
Island Hoppers,restaurant,Restaurang & Snabbmat,Instrumentvägen,N/A,59.3055572,17.9826465,Hägersten
Pepe Rosso,fast_food,Restaurang & Snabbmat,Älvsjövägen,5,59.2777849,18.0060419,
Grappolo D'uva,restaurant,Restaurang & Snabbmat,Älvsjö Torg,19A,59.2787636,18.0086926,
Fitness24Seven,fitness_centre,Gym/Utomhusgym,Älvsjö Broväg,N/A,59.2760792,18.0139633,Liseberg
Thelins,cafe,Kafé,Johan Skyttes Väg,185,59.2787234,18.008594,
WRAP'Z,restaurant,Restaurang & Snabbmat,Svandammsvägen,5,59.3018326,18.015297,
Rosteriet,cafe,Kafé,Rosterigränd,N/A,59.3119336,18.0239912,Liljeholmen
Marrakech Resturang,restaurant,Restaurang & Snabbmat,Årstaängsvägen,N/A,59.3096235,18.030495,Liljeholmen
Via loreto,restaurant,Restaurang & Snabbmat,Årstaängsvägen,N/A,59.3095015,18.0283179,Liljeholmen
Let's Eat Sushi,restaurant,Restaurang & Snabbmat,Sjöviksvägen,N/A,59.3082152,18.0270286,Liljeholmen
MGL Sushi,restaurant,Restaurang & Snabbmat,Fredsborgstorget,N/A,59.3072681,18.0268205,Liljeholmen
Tant Maja och Fröken Emilia,cafe,Kafé,Marieviksgatan,N/A,59.3081333,18.0272421,Liljeholmen
Blockriket,playground,Lekplats,Sjöviksvägen,N/A,59.3048279,18.0358318,Liljeholmen
Sjöviks pizza & kebab,fast_food,Restaurang & Snabbmat,Grönbrinksgatan,N/A,59.3070687,18.0292022,Liljeholmen
Haandi,restaurant,Restaurang & Snabbmat,Sjöviksvägen,N/A,59.3064883,18.0322898,Liljeholmen
Vår Pizza,restaurant,Restaurang & Snabbmat,Erik Segersälls Väg,N/A,59.3059146,18.0011339,Aspudden
Pizzabagaren,fast_food,Restaurang & Snabbmat,Tellusborgsvägen,N/A,59.298133,18.0025128,Västberga
Hanami Hawaiian Poké & Sushi,restaurant,Restaurang & Snabbmat,Sjöviksvägen,N/A,59.3060444,18.0325963,Liljeholmen
Lilla Paradiset,fast_food,Restaurang & Snabbmat,Örnsbergsvägen,N/A,59.3055597,17.9890185,Aspudden
Apoteket,pharmacy,Apotek,Axelsbergs Torg,2,59.304169,17.9748559,Hägersten
ICA Supermarket Telefonplan,supermarket,Matbutik,Tellusborgsvägen,87,59.2966808,18.0014892,
Brödernas,restaurant,Restaurang & Snabbmat,Sjövikskajen,N/A,59.3066191,18.0334682,Liljeholmen
Strong body & mind,fitness_centre,Gym/Utomhusgym,Sjöviksvägen,N/A,59.3053163,18.0358886,Liljeholmen
Café Cul-De-Sac,cafe,Kafé,Lusuddsvägen,N/A,59.316319,18.0163716,Gröndal
Del Mare,fast_food,Restaurang & Snabbmat,Nybohovsbacken,N/A,59.3090971,18.0155531,Liljeholmen
Fitness24Seven,fitness_centre,Gym/Utomhusgym,Fruängsgången,N/A,59.2855188,17.9646495,Fruängen
Systembolaget,alcohol,Systembolag,Nybohovsbacken,N/A,59.3094674,18.0214651,Liljeholmen
Lekplats,playground,Lekplats,Störtloppsvägen,N/A,59.295542,17.9655927,Västertorp
Biocafé Tellus,cafe,Kafé,Vattenledningsvägen,N/A,59.3019499,18.0075039,Midsommarkransen
Thaimat Take Away,fast_food,Restaurang & Snabbmat,Slättgårdsvägen,N/A,59.3007035,17.957103,Mälarhöjden
Bakom hörnet,restaurant,Restaurang & Snabbmat,Midsommarvägen,N/A,59.299527,18.0053741,Midsommarkransen
Masahiro,fast_food,Restaurang & Snabbmat,Tellusborgsvägen,N/A,59.2982973,18.0026717,Västberga
Lekplats,playground,Lekplats,Pingstvägen,N/A,59.3012522,17.9939547,Midsommarkransen
Bonne Femme,cafe,Kafé,Erik Segersälls Väg,N/A,59.3062326,18.0008701,Aspudden
Saigon House,restaurant,Restaurang & Snabbmat,Hägerstensvägen,N/A,59.3056332,17.9983257,Aspudden
Körkortshuset,driving_school,Trafikskola,Nybohovsbacken,N/A,59.3099318,18.0250845,Liljeholmen
Liljeholmens bilskola,driving_school,Trafikskola,Liljeholmstorget,N/A,59.3105393,18.0221584,Liljeholmen
Sushi by Rino,restaurant,Restaurang & Snabbmat,Svartlösavägen,52,59.2842313,17.9855051,
Lekplats,playground,Lekplats,Långbrovägen,N/A,59.2788513,17.9941093,Älvsjö
Parkfiken,cafe,Kafé,Torsten Almsstigen,N/A,59.3076579,17.9949017,Aspudden
Prepp,cafe,Kafé,Årstaängsvägen,N/A,59.310603,18.0297263,Liljeholmen
Furellios Ristorante,restaurant,Restaurang & Snabbmat,Nyårsvägen,N/A,59.3025113,17.994733,Midsommarkransen
Bonne Femme Stenungsbageri,cafe,Kafé,Midsommarvägen,N/A,59.2995714,18.0041699,Midsommarkransen
Xi'an Köket,restaurant,Restaurang & Snabbmat,Bäckvägen,N/A,59.3024092,17.994269,Midsommarkransen
Lekplats,playground,Lekplats,Typografvägen,N/A,59.3032597,17.9905437,Hägersten
A.B.Café,cafe,Kafé,Valborgsmässovägen,34,59.2995931,17.998632,
NIDa Catering och festvåning,restaurant,Restaurang & Snabbmat,Årstaängsvägen,N/A,59.3100886,18.03051,Liljeholmen
STC,fitness_centre,Gym/Utomhusgym,Ingenjörsvägen,4,59.3063503,18.0256674,
Texas Longhorn,restaurant,Restaurang & Snabbmat,Götalandsvägen,238,59.2801143,18.00389,
800 Grader,restaurant,Restaurang & Snabbmat,Cedergrensvägen,2,59.3034407,18.002799,
Distriktstandvården Liljeholmen,dentist,Tandläkare,Liljeholmstorget,N/A,59.309844,18.021877,Liljeholmen
Solbergaskogens utegym,fitness_station,Gym/Utomhusgym,Smaragdstigen,N/A,59.2853453,18.005873,Solberga
Teso Sushi,restaurant,Restaurang & Snabbmat,Kabelverksgatan,16,59.2823244,18.0028619,
Oh Poké,fast_food,Restaurang & Snabbmat,Älvsjö Stationsgata,N/A,59.2796169,18.0120045,Älvsjö
Solbrännans utegym,fitness_station,Gym/Utomhusgym,Apelsinstigen,N/A,59.2819949,18.0153827,Älvsjö
Systembolaget,alcohol,Systembolag,Älvsjö Ängsväg,2-6,59.275255,18.0128234,
Lubnan Kajen,restaurant,Restaurang & Snabbmat,Sjövikskajen,N/A,59.3061152,18.0354217,Liljeholmen
SATS Liljeholmstorget,fitness_centre,Gym/Utomhusgym,Liljeholmstorget,N/A,59.309834,18.022026,Liljeholmen
Bastard Burgers,restaurant,Restaurang & Snabbmat,Liljeholmstorget,5,59.309643,18.0224993,
Slow Hands,cafe,Kafé,Sedelvägen,35,59.2952723,17.9796325,
Thailaan,supermarket,Matbutik,Nybohovsbacken,N/A,59.3093456,18.0214941,Liljeholmen
Veloce Pizza,restaurant,Restaurang & Snabbmat,Kabelverksgatan,25,59.2820466,18.002632,
Sushi Yama,restaurant,Restaurang & Snabbmat,Liljeholmstorget,N/A,59.3095845,18.0218108,Liljeholmen
Bio Aspen,cinema,Biograf,Hägerstensvägen,100A,59.3060441,18.0066425,
TOVE,restaurant,Restaurang & Snabbmat,Sjöviksbacken,N/A,59.3049772,18.030666,Liljeholmen
STC,fitness_centre,Gym/Utomhusgym,Västbergavägen,N/A,59.2938492,18.0041601,Västberga
Coop Svandammsplan,supermarket,Matbutik,Pingstvägen,N/A,59.3010865,18.0032136,Midsommarkransen
STC,fitness_centre,Gym/Utomhusgym,Örnsbergsvägen,N/A,59.3052207,17.9890893,Aspudden
Studio Mimundo,tattoo,,Kabelverksgatan,48,59.2826737,18.0007297,
Gym/Utomhusgym,fitness_station,Gym/Utomhusgym,Doktor Widerströms Gata,N/A,59.2881437,17.9585985,Fruängen
Gym/Utomhusgym,fitness_station,Gym/Utomhusgym,Vantörsvägen,N/A,59.282748,17.9632351,Fruängen
Apotek Hjärtat,pharmacy,Apotek,Fruängsgången,5,59.2855373,17.9641768,
Circle K,fuel,Bensinmack,Varuvägen,2,59.2718312,18.0095316,
Gym/Utomhusgym,fitness_station,Gym/Utomhusgym,Sedelvägen,N/A,59.2979322,17.9864008,Hägerstensåsen
Älvsjö Centrum Vårdcentral,doctor,Vårdcentral,Älvsjö Stationsgata,N/A,59.2780408,18.0085476,Älvsjö
Midoris,restaurant,Restaurang & Snabbmat,Sjövikskajen,N/A,59.3058102,18.0367235,Liljeholmen
Thai Wok Orkidé,restaurant,Restaurang & Snabbmat,Bäckvägen,80,59.3022428,17.9935758,
Gymmet,fitness_centre,Gym/Utomhusgym,Årsta Hamnväg,N/A,59.3084472,18.0268805,Liljeholmen
Ponte & Simone,restaurant,Restaurang & Snabbmat,Sjövikskajen,N/A,59.3060783,18.0356973,Liljeholmen
3Sixty,restaurant,Restaurang & Snabbmat,Sjövikskajen,N/A,59.3061695,18.0351583,Liljeholmen
Färgfabrikens Kafé,restaurant,Restaurang & Snabbmat,Lövholmsbrinken,N/A,59.3153217,18.0193396,Liljeholmen
STC,fitness_centre,Gym/Utomhusgym,Johan Skyttes Väg,N/A,59.2778284,18.0031991,Liseberg
Konstfack bibliotek,library,Bibliotek,LM Ericssons Väg,N/A,59.2998873,17.9941863,Midsommarkransen
Pizzeria Delize,fast_food,Restaurang & Snabbmat,Skridskovägen,N/A,59.2939651,17.9768288,Västertorp
Piatto Fresco,restaurant,Restaurang & Snabbmat,Årsta Skolgränd,10,59.3015269,18.0297314,
Lulu,restaurant,Restaurang & Snabbmat,TELLUSBORGSVÄGEN,77A,59.2979966,18.0023627,
Skin Team,doctor,Vårdcentral,Fruängsgatan,N/A,59.2846062,17.9604355,Fruängen
My Favorit Grill,restaurant,Restaurang & Snabbmat,Doktor Widerströms Gata,N/A,59.2853426,17.95617,Fruängen
Fruängens Trafikskola,driving_school,Trafikskola,Fruängsgatan,N/A,59.284921,17.961645,Fruängen
Sushi & Poke,restaurant,Restaurang & Snabbmat,Vantörsvägen,N/A,59.2861904,17.9532279,Fruängen
Il Forno,restaurant,Restaurang & Snabbmat,Vantörsvägen,N/A,59.2863117,17.9507629,Fruängen
STC,fitness_centre,Gym/Utomhusgym,Vantörsvägen,N/A,59.2864995,17.9537332,Fruängen
Grill&Wok Stugan,restaurant,Restaurang & Snabbmat,Varuvägen,N/A,59.2717762,18.0071086,Älvsjö
Sushi Kawa,restaurant,Restaurang & Snabbmat,Fruängstorget,6,59.2858028,17.9638267,
Nordic Wellness,fitness_centre,Gym/Utomhusgym,Elsa Brändströms Gata,N/A,59.2868351,17.9640998,Fruängen
Fruängens Tandläkare,dentist,Tandläkare,Elsa Brändströms Gata,N/A,59.2884181,17.9629296,Fruängen
Fruängstandläkarna,dentist,Tandläkare,Elsa Brändströms Gata,N/A,59.2882672,17.9630587,Fruängen
Fruängens Familjetandvård,dentist,Tandläkare,Hanna Paulis Gata,N/A,59.2867241,17.9635245,Fruängen
Babas,fast_food,Restaurang & Snabbmat,Fruängstorget,6,59.2857997,17.9639333,
Fruängen Dental,dentist,Tandläkare,Fruängsgången,N/A,59.285451,17.9637336,Fruängen
Home Food,restaurant,Restaurang & Snabbmat,Fruängsplan,N/A,59.2859601,17.9652138,Fruängen
Folktandvården,dentist,Tandläkare,Västertorpsplan,N/A,59.2925671,17.9689012,Västertorp
Surdegspizza,restaurant,Restaurang & Snabbmat,Vasaloppsvägen,N/A,59.2937752,17.9655439,Västertorp
Västertorps Hjärta,restaurant,Restaurang & Snabbmat,Störtloppsvägen,30,59.2936722,17.9672747,
Vår Pizza,restaurant,Restaurang & Snabbmat,Västertorpsplan,N/A,59.2924658,17.9689861,Västertorp
Samtal Dental,dentist,Tandläkare,Jordkabelgatan,2,59.2822406,18.0020749,
Goal Vision Dream,fitness_centre,Gym/Utomhusgym,Kabelverksgatan,N/A,59.282684,18.0013459,Älvsjö
Maritza Fixar,doctor,Vårdcentral,Götalandsvägen,N/A,59.2802531,18.0130392,Älvsjö
Älvsjö Tandvård,dentist,Tandläkare,Prästgårdsgränd,N/A,59.280285,18.0112353,Älvsjö
STC,fitness_centre,Gym/Utomhusgym,Götalandsvägen,N/A,59.279558,18.0106482,Älvsjö
The Garden,restaurant,Restaurang & Snabbmat,Mässvägen,1,59.2767476,18.0113337,Liseberg
Ichiban,restaurant,Restaurang & Snabbmat,Skridskovägen,N/A,59.2940655,17.9767838,Västertorp
Axelsbergs Tandläkarna,dentist,Tandläkare,Selmedalsvägen,42;44;46,59.3046899,17.9740205,Hägersten
Cachay,cafe,Kafé,Skridskovägen,N/A,59.2940156,17.976807,Västertorp
Tang Ji,restaurant,Restaurang & Snabbmat,Axelsbergs Torg,2,59.3042013,17.9748353,Hägersten
Tandläkare,dentist,Tandläkare,Hägerstensvägen,N/A,59.3009479,17.9580862,Hägersten
Brödernas,restaurant,Restaurang & Snabbmat,Brådstupsvägen,N/A,59.3041131,17.9589797,Hägersten
Catarina,restaurant,Restaurang & Snabbmat,Sparbanksvägen,N/A,59.2951096,17.9838697,Hägerstensåsen
Topoli,restaurant,Restaurang & Snabbmat,Korpmossevägen,N/A,59.2910859,17.9904856,Västberga
Holy Kebab,restaurant,Restaurang & Snabbmat,Telefonplan,2,59.2990773,17.9955577,Midsommarkransen
Texas Longhorn,restaurant,Restaurang & Snabbmat,Telefonplan,2,59.2990535,17.9950864,Midsommarkransen
Brödernas,restaurant,Restaurang & Snabbmat,LM Ericssons Väg,N/A,59.2990343,17.9952838,Midsommarkransen
Gigis Hörna,restaurant,Restaurang & Snabbmat,Tellusgången,N/A,59.2987978,17.9896584,Midsommarkransen
Nataljas Medicinska Fotvård,doctor,Vårdcentral,Midsommarvägen,N/A,59.2995544,18.0046911,Midsommarkransen
Skog,fitness_centre,Gym/Utomhusgym,Tellusborgsvägen,N/A,59.2992941,18.0038141,Västberga
Mitt Gym,fitness_centre,Gym/Utomhusgym,Tellusborgsvägen,N/A,59.2987718,18.0020897,Västberga
stc,fitness_centre,Gym/Utomhusgym,Midsommargränd,N/A,59.2989891,18.0036417,Västberga
Noli Deli,restaurant,Restaurang & Snabbmat,Midsommarparken,N/A,59.3012561,18.0120163,Midsommarkransen
Målarverkstadens Bistro,cafe,Kafé,Hägerstensvägen,N/A,59.3054014,17.9937227,Aspudden
Thurson & Engquist,dentist,Tandläkare,Botvidsgatan,N/A,59.3060239,17.9982697,Aspudden
Bara Yoga,fitness_centre,Gym/Utomhusgym,Schlytersvägen,N/A,59.3067148,18.0003357,Aspudden
STC,fitness_centre,Gym/Utomhusgym,Klacktorget,N/A,59.2868632,18.0099703,Solberga
Lokanta,restaurant,Restaurang & Snabbmat,Kristalltorget,N/A,59.2899188,17.9989496,Solberga
Restaurang & Snabbmat,restaurant,Restaurang & Snabbmat,Kristalltorget,N/A,59.290128,17.9996432,Solberga
Tandvård,dentist,Tandläkare,Örby Slottsväg,N/A,59.2802409,18.0337115,Örby slott
Hägerstens trafikskola,driving_school,Trafikskola,Hägerstensvägen,N/A,59.3058983,18.0076915,Aspudden
Kim Ban Ban,restaurant,Restaurang & Snabbmat,Nybohovsbacken,N/A,59.3095202,18.021603,Liljeholmen
Gym/Utomhusgym,fitness_station,Gym/Utomhusgym,Tellusborgsvägen,N/A,59.3004082,18.0045074,Midsommarkransen
Johan Skytteskolans utegym,fitness_centre,Gym/Utomhusgym,Västerängsvägen,21,59.277314,17.9829224,
Dentalisterna,dentist,Tandläkare,Liljeholmsvägen,N/A,59.3118095,18.024004,Liljeholmen
Thelins konditori,cafe,Kafé,Gröndalsvägen,N/A,59.3154302,18.0013803,Gröndal
Beirut Lounge,restaurant,Restaurang & Snabbmat,Fruängstorget,6,59.2857974,17.9640318,
Café Nero,cafe,Kafé,Liljeholmstorget,N/A,59.3097814,18.022905,Liljeholmen
Il Forno,restaurant,Restaurang & Snabbmat,Liljeholmstorget,N/A,59.309555,18.0220841,Liljeholmen
Kebab-ish,restaurant,Restaurang & Snabbmat,Liljeholmstorget,N/A,59.3097263,18.022769,Liljeholmen
Naked fish,restaurant,Restaurang & Snabbmat,Fågeltorget,N/A,59.3055101,17.9931902,Aspudden
La Casa de Planka,restaurant,Restaurang & Snabbmat,Klockhusgränd,1A,59.2810236,18.0003712,
Magic Masala,restaurant,Restaurang & Snabbmat,Nioörtsvägen,24,59.3015599,18.016121,
Midsommarkransens trafikskola,driving_school,Trafikskola,Tegelbruksvägen,8,59.3025534,18.014335,
Smash N Grab,fast_food,Restaurang & Snabbmat,Fredsborgsgatan,N/A,59.3059707,18.0303074,Liljeholmen
Kringelgården Kransen,cafe,Kafé,Radiusbacken,N/A,59.2985575,18.0029163,Västberga
Lisebergs vårdcentral,doctor,Vårdcentral,Annebodavägen,4-6,59.2848365,18.0303853,
Lekplats,playground,Lekplats,Pingstvägen,N/A,59.301087,17.9937606,Midsommarkransen
Lugnet,playground,Lekplats,Terrängvägen,N/A,59.2942412,17.9700555,Västertorp
Kristallparken,playground,Lekplats,Sulvägen,N/A,59.2871487,18.0034603,Solberga
Lekplats,playground,Lekplats,Elsa Borgs Gata,N/A,59.2828065,17.9659617,Fruängen
Lekplatsen Solhatten,playground,Lekplats,Elsa Borgs Gata,N/A,59.283478,17.9673044,Fruängen
Lekplats,playground,Lekplats,Fruängsgatan,N/A,59.284193,17.9681413,Fruängen
Lekplats,playground,Lekplats,Lina Sandells Plan,N/A,59.2837588,17.9601189,Fruängen
Lekplats,playground,Lekplats,Lina Sandells Plan,N/A,59.2845656,17.9610146,Fruängen
Pizzeria Lugano,restaurant,Restaurang & Snabbmat,Fredrika Bremers Gata,63,59.2835794,17.970829,
Lekplats,playground,Lekplats,Elin Wägners Gata,N/A,59.2852541,17.9726617,Fruängen
Lekplats,playground,Lekplats,Elin Wägners Gata,N/A,59.2859825,17.9710023,Fruängen
Lekplats,playground,Lekplats,Elin Wägners Gata,N/A,59.2844173,17.9718698,Fruängen
Lekplats,playground,Lekplats,Ellen Keys Gata,N/A,59.2882191,17.9662852,Fruängen
Lekplats,playground,Lekplats,Fredrika Bremers Gata,N/A,59.2871324,17.9714389,Fruängen
Lekplats,playground,Lekplats,Hanna Paulis Gata,N/A,59.2876557,17.9618021,Fruängen
Lekplats,playground,Lekplats,Hanna Paulis Gata,N/A,59.2867196,17.9629663,Fruängen
Lekplats,playground,Lekplats,Hanna Paulis Gata,N/A,59.2871711,17.9619961,Fruängen
Parkleken Vippan,playground,Lekplats,Elin Wägners Gata,N/A,59.2868424,17.9696987,Fruängen
Lekplats,playground,Lekplats,Eva Bonniers Gata,N/A,59.2856931,17.9605601,Fruängen
Lekplats,playground,Lekplats,Doktor Widerströms Gata,N/A,59.2850186,17.9588585,Fruängen
Hamburgarprinsen,fast_food,Restaurang & Snabbmat,Doktor Widerströms Gata,N/A,59.2853476,17.9561503,Fruängen
Lekplats,playground,Lekplats,Doktor Widerströms Gata,N/A,59.2871093,17.9581462,Fruängen
Lekplats,playground,Lekplats,Doktor Widerströms Gata,N/A,59.2864981,17.9574888,Fruängen
Storhagen,playground,Lekplats,Herrängsvägen,N/A,59.2754336,17.9612046,Älvsjö
Fruktparken,playground,Lekplats,Liljeholmsgränd,N/A,59.3110715,18.022184,Liljeholmen
Tre kungars lund,playground,Lekplats,Tre kungars lund,N/A,59.284972,18.0237632,Älvsjö
Lidl,supermarket,Matbutik,Elisabeth Tamms Gata,2,59.285627,17.9544506,
Coop Mälarhöjden,supermarket,Matbutik,Hägerstensvägen,331,59.3013291,17.9573872,
Lekplats,playground,Lekplats,Fem Fålars Brunn,N/A,59.2847863,18.0268878,Älvsjö
Lekplats,playground,Lekplats,Mickelsbergsvägen,N/A,59.2866784,17.975077,Fruängen
Långbro värdshus,restaurant,Restaurang & Snabbmat,Stora Mans väg,4,59.282823,17.9708426,
Arkenparken,playground,Lekplats,Torsslowsbacken,N/A,59.3062412,17.9769444,Hägersten
Lekplats,playground,Lekplats,Mästarbacken,N/A,59.2981977,17.9431737,Mälarhöjden
Johannisdalsparken,playground,Lekplats,Sankt Mickelsgatan,N/A,59.2964066,17.957966,Mälarhöjden
Pandaparken,playground,Lekplats,Nybohovsgränd,N/A,59.3076543,18.0177308,Liljeholmen
Schlytersparken,playground,Lekplats,Schlytersvägen,N/A,59.3067827,18.0073509,Aspudden
Parklek Sjörövarparken,playground,Lekplats,Sandalettstigen,N/A,59.2814003,18.008867,Solberga
Apelsinen,playground,Lekplats,Apelsinstigen,N/A,59.2839465,18.0145002,Solberga
Lekplats,playground,Lekplats,Pilgrimsvägen,N/A,59.3051419,18.0026426,Aspudden
Lekplats,playground,Lekplats,Näbbskostigen,N/A,59.2883133,18.014647,Solberga
Gunnars Pizzeria,fast_food,Restaurang & Snabbmat,Herrängsvägen,N/A,59.2757484,17.9612266,Älvsjö
Klämman,playground,Lekplats,Sylvestergatan,N/A,59.2864615,18.0287083,Älvsjö
Park Folkets Hus,cinema,Biograf,Götalandsvägen,181,59.2831582,18.0272566,
Eolshälls 4 H-gård,cafe,Kafé,Eolshällsvägen,10,59.3078856,17.9694819,
Lekplats,playground,Lekplats,Ekensbergsvägen,N/A,59.3156447,17.9932308,Gröndal
Lekplats,playground,Lekplats,Gröndalsvägen,N/A,59.3153829,18.0092357,Gröndal
Lekplats,playground,Lekplats,Örnbacken,N/A,59.30927,17.9876444,Aspudden
Lekplats,playground,Lekplats,Selmedalsvägen,N/A,59.3049254,17.9733691,Hägersten
Lekplats,playground,Lekplats,Selmedalsvägen,N/A,59.3047878,17.9700238,Hägersten
Lekplats,playground,Lekplats,Selmedalsvägen,N/A,59.3048481,17.9711576,Hägersten
Lekplats,playground,Lekplats,Selmedalsvägen,N/A,59.3048825,17.9722869,Hägersten
Lekplats,playground,Lekplats,Gröndalsvägen,N/A,59.3165046,18.0116344,Gröndal
Lekplats,playground,Lekplats,Ekensbergsvägen,N/A,59.3161037,17.9924057,Gröndal
Lekplats,playground,Lekplats,Juvelerarvägen,N/A,59.2879036,17.9934344,Solberga
Lekplats,playground,Lekplats,Smyckegränd,N/A,59.2863928,17.9960799,Solberga
Lekplats,playground,Lekplats,Korpmossevägen,N/A,59.2947442,17.9896157,Västberga
Lekplats,playground,Lekplats,Fregattvägen,N/A,59.312684,18.0007917,Gröndal
Lekplats,playground,Lekplats,Hövdingagatan,N/A,59.3068798,17.9918246,Aspudden
Lekplats,playground,Lekplats,Botvidsgatan,N/A,59.3062938,17.9992611,Aspudden
Lekplats,playground,Lekplats,Hägerstensvägen,N/A,59.3054169,17.9914834,Aspudden
Lekplats,playground,Lekplats,Hägerstensvägen,N/A,59.3052971,17.9901362,Aspudden
Lekplats,playground,Lekplats,Hägerstensvägen,N/A,59.3053371,17.990788,Aspudden
Lekplats,playground,Lekplats,Örnsbergsvägen,N/A,59.3057595,17.9890531,Aspudden
Lekplats,playground,Lekplats,Mellanbergsvägen,N/A,59.2910102,17.9896217,Västberga
Lekplats,playground,Lekplats,Räfsestigen,N/A,59.2857402,17.9818039,Älvsjö
Lekplats,playground,Lekplats,Karossvägen,N/A,59.2859727,17.981471,Älvsjö
Daisy's express,fast_food,Restaurang & Snabbmat,Elektravägen,32,59.2952544,18.0109716,
Café Uddvillan,cafe,Kafé,Klubbensborgsvägen,27,59.3076706,17.9584891,
Lekplats,playground,Lekplats,Skidskyttevägen,N/A,59.2910129,17.9712767,Västertorp
Lekplats,playground,Lekplats,Sigfridsvägen,N/A,59.3089453,18.0063838,Aspudden
Lekplats,playground,Lekplats,Örnbacken,N/A,59.3095221,17.9900789,Aspudden
Lekplats,playground,Lekplats,Ekensbergsvägen,N/A,59.3147349,17.9899842,Gröndal
Båtparken,playground,Lekplats,Sedelvägen,N/A,59.2952972,17.9817846,Hägerstensåsen
Lekplats,playground,Lekplats,Dymlingsgränd,N/A,59.290627,17.9862774,Hägerstensåsen
Lekplats,playground,Lekplats,Tomträttsvägen,N/A,59.2941919,17.9833147,Hägerstensåsen
Lekplats,playground,Lekplats,Gröndalsvägen,N/A,59.3141693,17.9905113,Gröndal
Gym/Utomhusgym,fitness_station,Gym/Utomhusgym,Älvsjöskogens elljusspår,N/A,59.2650237,17.9966321,Långsjö
Lekplats,playground,Lekplats,Gösta Ekmans väg,N/A,59.3028637,17.9818054,Hägersten
Långbro bakficka,cafe,Kafé,Stora Kvinns Väg,N/A,59.2818034,17.9715299,Älvsjö
Lekplats,playground,Lekplats,Korpmossevägen,N/A,59.292797,17.9894293,Västberga
Lekplats,playground,Lekplats,Gösta Ekmans väg,N/A,59.3034228,17.9845761,Hägersten
Lekplats,playground,Lekplats,Piruettvägen,N/A,59.2935954,17.9785477,Hägerstensåsen
Lekplats,playground,Lekplats,Hägerstensvägen,N/A,59.3056737,17.9940364,Aspudden
Lekplats,playground,Lekplats,Tordyvelvägen,N/A,59.276096,17.9845351,Älvsjö
Lekplats,playground,Lekplats,Konvaljestigen,N/A,59.2758612,17.9704502,Älvsjö
Lekplats,playground,Lekplats,Cedergrensvägen,N/A,59.3025709,18.0028615,Midsommarkransen
Gym/Utomhusgym,fitness_station,Gym/Utomhusgym,Personnevägen,N/A,59.2912146,17.9814735,Hägerstensåsen
Lekplats,playground,Lekplats,Dansbanevägen,N/A,59.2955151,18.0091991,Västberga
Lekplats,playground,Lekplats,Elektravägen,N/A,59.2952243,18.0088472,Västberga
Lekplats,playground,Lekplats,Elektravägen,N/A,59.2947361,18.0084906,Västberga
Tågparken,playground,Lekplats,Midsommarparken,N/A,59.3010938,18.0124815,Midsommarkransen
Lekplats,playground,Lekplats,Aspuddsstigen,N/A,59.3083414,17.9951682,Aspudden
Lekplats,playground,Lekplats,Aspuddsstigen,N/A,59.3086413,17.9958374,Aspudden
Lekplats,playground,Lekplats,Torsten Almsstigen,N/A,59.3085675,17.9942743,Aspudden
Lekplats,playground,Lekplats,Örnbacken,N/A,59.3093412,17.9885182,Aspudden
Lekplats,playground,Lekplats,Torsten Alms Gata,N/A,59.3091886,17.9862516,Aspudden
Lekplats,playground,Lekplats,Sigurd Rings Gata,N/A,59.3093829,17.9928607,Aspudden
Lekplats,playground,Lekplats,Hägerstensvägen,N/A,59.3040874,17.9826483,Hägersten
Lekplats,playground,Lekplats,Gösta Ekmans väg,N/A,59.3034249,17.9796788,Hägersten
Lekplats,playground,Lekplats,Terrängvägen,N/A,59.2940854,17.9693965,Västertorp
Lekplats,playground,Lekplats,Terrängvägen,N/A,59.2943289,17.9701766,Västertorp
Lekplats,playground,Lekplats,Terrängvägen,N/A,59.2939612,17.9700842,Västertorp
Lekplats,playground,Lekplats,Standarvägen,N/A,59.2765852,18.0036235,Liseberg
Lekplats,playground,Lekplats,Styrbjörnsvägen,N/A,59.3099007,18.0005078,Aspudden
Lekplats,playground,Lekplats,Nybodaringen,N/A,59.3048544,18.0256745,Liljeholmen
Lekplats,playground,Lekplats,Nybodaringen,N/A,59.304753,18.024029,Liljeholmen
Lekplats,playground,Lekplats,Trekantsstranden,N/A,59.3136884,18.0161082,Liljeholmen
Lekplats,playground,Lekplats,Hildebergsvägen,N/A,59.3028169,18.0283699,Liljeholmen
Lekplats,playground,Lekplats,Klensmedsvägen,N/A,59.2952499,17.9986178,Västberga
Lekplats,playground,Lekplats,Ellen Fries Gata,N/A,59.2882923,17.9716815,Fruängen
Lekplats,playground,Lekplats,Elsa Brändströms Gata,N/A,59.2879084,17.9774308,Fruängen
Lekplats,playground,Lekplats,Elsa Brändströms Gata,N/A,59.2879344,17.9734759,Fruängen
Lekplats,playground,Lekplats,Backvindeln,N/A,59.297713,17.946049,Mälarhöjden
Lekplats,playground,Lekplats,Backvindeln,N/A,59.2982176,17.9476918,Mälarhöjden
Lekplats,playground,Lekplats,Hildebergsvägen,N/A,59.3038312,18.0278501,Liljeholmen
Lekplats,playground,Lekplats,Sturehillsvägen,N/A,59.3035153,18.0318319,Liljeholmen
Lekplats,playground,Lekplats,Sjöviksbacken,26,59.3045217,18.0288372,Liljeholmen
Lekplats,playground,Lekplats,Hägerstensvägen,N/A,59.3072373,18.0149026,Liljeholmen
Lekplats,playground,Lekplats,Nybohovsbacken,N/A,59.3094402,18.0136908,Liljeholmen
Lekplats,playground,Lekplats,Sjöviksvägen,N/A,59.305502,18.0373301,Liljeholmen
Lekplats,playground,Lekplats,Terrängvägen,N/A,59.2920811,17.9634116,Västertorp
Lekplats,playground,Lekplats,Terrängvägen,N/A,59.2915282,17.9647205,Västertorp
Lekplats,playground,Lekplats,Terrängvägen,N/A,59.2923007,17.9646263,Västertorp
Lekplats,playground,Lekplats,Domargränd,N/A,59.2921334,17.9667836,Västertorp
Lekplats,playground,Lekplats,Vasaloppsvägen,N/A,59.2936644,17.9661966,Västertorp
Lekplats,playground,Lekplats,N/A,N/A,59.2935138,17.9633416,Västertorp
Lekplats,playground,Lekplats,Vasaloppsvägen,N/A,59.2927394,17.9624268,Västertorp
Lekplats,playground,Lekplats,Isgränd,N/A,59.291388,17.9680901,Västertorp
Lekplats,playground,Lekplats,Västertorpsvägen,N/A,59.2905198,17.9684915,Västertorp
Lekplats,playground,Lekplats,Klensmedsvägen,4,59.2951395,17.9995557,Västberga
Lekplats,playground,Lekplats,Sturehillsvägen,N/A,59.3026556,18.0308653,Liljeholmen
Lekplats,playground,Lekplats,Fregattvägen,N/A,59.3129195,18.0010809,Gröndal
Lekplats,playground,Lekplats,Nybodaringen,N/A,59.3049968,18.0255274,Liljeholmen
Lekplats,playground,Lekplats,Årsta Skolgränd,N/A,59.302216,18.031414,Liljeholmen
Lekplats,playground,Lekplats,Sjöviksbacken,24,59.3047207,18.0301015,Liljeholmen
Lekplats,playground,Lekplats,Sannadalsvägen,N/A,59.3146938,18.0132614,Gröndal
Lekplats,playground,Lekplats,Ljusstöparbacken,N/A,59.3141886,18.0107816,Gröndal
Mastparken,playground,Lekplats,Bryggvägen,N/A,59.3158526,17.9982854,Gröndal
Sannadalsparkens utegym,fitness_station,Gym/Utomhusgym,Gröndalsvägen,N/A,59.3150089,18.0085257,Gröndal
Lekplats,playground,Lekplats,Gröndalsvägen,N/A,59.3150309,17.9861643,Gröndal
Liljeholmens utegym,fitness_station,Gym/Utomhusgym,Liljeholmsgränd,N/A,59.3106174,18.0205876,Liljeholmen
Lekplats,playground,Lekplats,Gröndalsvägen,N/A,59.3152632,17.9894619,Gröndal
Lekplats,playground,Lekplats,Gröndalsvägen,N/A,59.3152142,17.9885647,Gröndal
Lekplats,playground,Lekplats,Svartlösavägen,N/A,59.2737193,17.9776202,Älvsjö
Fågelparken,playground,Lekplats,Aspuddsstigen,N/A,59.3080827,17.9841934,Aspudden
Lekplats,playground,Lekplats,Mästarbacken,N/A,59.2986681,17.9437829,Mälarhöjden
Lekplats,playground,Lekplats,Sturehillsvägen,N/A,59.3027555,18.0315241,Liljeholmen
Lekplats,playground,Lekplats,Sjövikstorget,N/A,59.307854,18.029127,Liljeholmen
Blixtparken,playground,Lekplats,Nybohovsbacken,N/A,59.309063,18.0179701,Liljeholmen
Lekplats,playground,Lekplats,Oktobergatan,N/A,59.3016053,18.0058844,Midsommarkransen
Lekplats,playground,Lekplats,Vattenledningsvägen,N/A,59.3006608,18.0050278,Midsommarkransen
Lekplats,playground,Lekplats,Tellusborgsvägen,N/A,59.3015448,18.0054177,Midsommarkransen
Midsommarköket,cafe,Kafé,Tellusborgsvägen,N/A,59.3008355,18.004508,Midsommarkransen
Lekplats,playground,Lekplats,Sylvestergatan,N/A,59.2874314,18.0276342,Älvsjö
Lekplats,playground,Lekplats,Mälsåkersvägen,N/A,59.2805162,18.0286972,Örby slott
Lekplats,playground,Lekplats,Rävsnäsvägen,N/A,59.2800356,18.0270507,Örby slott
Lekplats,playground,Lekplats,Vattenledningsvägen,N/A,59.3022227,18.0079737,Midsommarkransen
Lekplats,playground,Lekplats,Sjöviksvägen,N/A,59.305432,18.0365934,Liljeholmen
Lekplats,playground,Lekplats,Sjöviksvägen,N/A,59.3056007,18.0368085,Liljeholmen
Utegym,fitness_station,Gym/Utomhusgym,Vinterviksvägen,N/A,59.3117506,18.0025198,Gröndal
Lekplatsen Ada Nilsson,playground,Lekplats,Ada Nilssons gata,N/A,59.2844051,17.9560886,Fruängen
Lekplats,playground,Lekplats,Ada Nilssons gata,N/A,59.2836804,17.9566138,Fruängen
Lekplats,playground,Lekplats,Liljeholmsgränd,N/A,59.3110246,18.0225364,Liljeholmen
Lekplats,playground,Lekplats,Cedergrensvägen,N/A,59.302719,18.002662,Midsommarkransen
Lekplats,playground,Lekplats,Cedergrensvägen,N/A,59.3028075,18.0027238,Midsommarkransen
Lekplats,playground,Lekplats,Cedergrensvägen,N/A,59.3028772,18.0028384,Midsommarkransen
Lekplats,playground,Lekplats,Selmedalsringen,N/A,59.3069467,17.9792219,Hägersten
Lekplats,playground,Lekplats,Katrinebergsbacken,N/A,59.3117019,18.0269593,Liljeholmen
Lekplats,playground,Lekplats,Katrinebergsbacken,N/A,59.3115473,18.0263545,Liljeholmen
Lekplats,playground,Lekplats,Glasbjörksvägen,N/A,59.278695,17.9801065,Älvsjö
Lekplats,playground,Lekplats,Karin Boyes gata,N/A,59.2806896,17.9583986,Fruängen
Lekplats,playground,Lekplats,Stövelvägen,N/A,59.2867138,18.0079936,Solberga
Lekplats,playground,Lekplats,Herbariegränd,N/A,59.3032761,18.0168782,Liljeholmen
Lekplats,playground,Lekplats,Telefonvägen,N/A,59.2994264,18.001098,Midsommarkransen
Lekplats,playground,Lekplats,Personnevägen,N/A,59.2914217,17.9808894,Hägerstensåsen
Lekplats,playground,Lekplats,Hultgränd,N/A,59.2824295,17.9751216,Älvsjö
Lekplats,playground,Lekplats,Årstadalsinfarten,N/A,59.3076001,18.0259084,Liljeholmen
