Namn,Typ,Kategori,Gata,Nr,Lat,Lon,Stadsdel
Konstfack,university,Skola,LM Ericssons Väg,14,59.2997731,17.9942096,Midsommarkransen
Marino,restaurant,Restaurang,Klubbacken,51,59.305325,17.9632902,Hägersten
Hemköp Stockholm Älvsjö,supermarket,Matbutik,Sjättenovembervägen,208,59.2787519,18.00228,Liseberg
,parking,Parkering,Inteckningsvägen,,59.2923485,17.9857083,Hägerstensåsen
McDonald's,fast_food,Snabbmat,Lerkrogsvägen,,59.2930743,18.0012108,Västberga
Coop Västertorp,supermarket,Matbutik,Störtloppsvägen,17,59.2927384,17.9676426,Västertorp
Hemköp Hägersten Västertorp,supermarket,Matbutik,Störtloppsvägen,22,59.2930981,17.9677873,Västertorp
Sushi Bar,restaurant,Restaurang,Störtloppsvägen,,59.2924236,17.9679342,Västertorp
,parking,Parkering,Långsjöhöjden,,59.2649037,17.9837715,Långsjö
,parking,Parkering,Herr Göstas Väg,,59.2718859,17.9994296,Långsjö
Apoteket,pharmacy,Apotek,Fruängstorget,6,59.2857782,17.9646066,Fruängen
Solberga restaurang,restaurant,Restaurang,Klacktorget,4,59.2869324,18.0104442,Solberga
Stora Coop Västberga,supermarket,Matbutik,Västbergavägen,4,59.2937143,18.0046482,Västberga
Willys Stockholm Älvsjö,supermarket,Matbutik,Älvsjö Ängsväg,2-6,59.2753,18.0132,Liseberg
ICA Supermarket,supermarket,Matbutik,Sjövikstorget,,59.3073101,18.0296528,Liljeholmen
E4-baren,fast_food,Snabbmat,Kristallvägen,156,59.2897345,18.0023026,Solberga
Cafe Vintervikens Trädgård,cafe,Kafé,Vinterviksvägen,30,59.3112368,17.9990416,Aspudden
Coop Gröndal,supermarket,Matbutik,Gröndalsvägen,,59.3160917,18.0116571,Gröndal
Ekensbergs Pizza,fast_food,Snabbmat,Gröndalsvägen,,59.3148143,17.9953198,Gröndal
Lundbergs konditori,cafe,Kafé,Sjöbjörnsvägen,,59.3160215,18.0103222,Gröndal
Gröndals Sushi Kök,restaurant,Restaurang,Gröndalsvägen,,59.3158464,18.0136582,Gröndal
Tre Vänner,restaurant,Restaurang,Svandammsvägen,,59.3014183,18.0120339,Midsommarkransen
Tegelbruket,cafe,Kafé,Svandammsvägen,,59.3020479,18.0153506,Midsommarkransen
Restaurant Kransen,restaurant,Restaurang,Nybodagatan,,59.3022631,18.0148264,Midsommarkransen
Pita i parken,restaurant,Restaurang,Svandammsvägen,,59.301094,18.0069063,Midsommarkransen
ICA Nära Telefonplan,supermarket,Matbutik,Telefonvägen,20,59.2988217,17.9969403,Midsommarkransen
Pizzeria Italia,fast_food,Snabbmat,Cedergrensvägen,,59.3001157,17.9957628,Midsommarkransen
Best on the best,restaurant,Restaurang,LM Ericssons Väg,,59.29991,17.9959046,Midsommarkransen
Landet,restaurant,Restaurang,Valborgsmässovägen,,59.2991679,17.9962667,Midsommarkransen
Telegrillen,fast_food,Snabbmat,Mikrofonvägen,,59.2979103,17.9971428,Midsommarkransen
JJ's,fast_food,Snabbmat,Främlingsvägen,,59.3039515,18.0036438,Midsommarkransen
Coop Älvsjö,supermarket,Matbutik,Älvsjö Torg,4,59.2790528,18.0099095,Älvsjö
Gröndals grill & pizza,fast_food,Snabbmat,Gröndalsvägen,,59.3158038,18.0095939,Gröndal
Gandhi,restaurant,Restaurang,Sjöbjörnsvägen,,59.316601,18.0083698,Gröndal
Hägern,restaurant,Restaurang,Inteckningsvägen,84,59.2944861,17.9809865,Hägerstensåsen
Ica,supermarket,Matbutik,Sparbanksvägen,,59.2971133,17.982747,Hägerstensåsen
Indian Lotus,restaurant,Restaurang,Riksdalervägen,,59.2974935,17.9843719,Hägerstensåsen
Da Dante,restaurant,Restaurang,Brådstupsvägen,,59.3040862,17.9591433,Hägersten
Villa Fridhem,restaurant,Restaurang,Mälarhöjdsvägen,2,59.3016308,17.956049,Mälarhöjden
Coop Örnsberg,supermarket,Matbutik,Junkergatan,27,59.3057786,17.9895142,Aspudden
Wintervikens cafe,cafe,Kafé,Vinterviksvägen,60,59.3116377,17.9921168,Aspudden
Pizzeria Sorrento,fast_food,Snabbmat,Störtloppsvägen,26,59.2933579,17.9675477,Västertorp
Nickys Thai,restaurant,Restaurang,Styrbjörnsvägen,,59.3094687,18.0026802,Aspudden
Coop Aspudden,supermarket,Matbutik,Fågeltorget,,59.3053907,17.9932874,Aspudden
Tellus Restaurang,restaurant,Restaurang,Dialoggatan,11,59.2991966,17.9924373,Midsommarkransen
"ICA Hallen, Axelsberg",supermarket,Matbutik,Selmedalsvägen,38,59.3048107,17.9755631,Hägersten
Mix Thai,fast_food,Snabbmat,Doktor Widerströms Gata,1,59.2840405,17.9578914,Fruängen
Hemköp Stockholm Fruängen C,supermarket,Matbutik,Fruängsgången,10,59.2856612,17.9646492,Fruängen
Bankomat,restaurant,Restaurang,Sjövikskajen,,59.3076959,18.0305063,Liljeholmen
Nästan hemma,cafe,Kafé,Slättgårdsvägen,1,59.3009248,17.957392,Hägersten
,parking,Parkering,Bjällervägen,,59.2902081,17.9576142,Västertorp
Långpannan,restaurant,Restaurang,Elsa Borgs Gata,,59.2829973,17.9647493,Fruängen
Coop Fruängen,supermarket,Matbutik,Fruängsgången,3,59.2854719,17.9653558,Fruängen
Lucky,fast_food,Snabbmat,Örnsbergsvägen,,59.3054372,17.98887,Aspudden
Woktory,restaurant,Restaurang,Ellen Keys Gata,75,59.2846844,17.9662449,Fruängen
Fruängens Läkarhus,doctor,Vårdcentral,Fruängsgången,2,59.2855867,17.9667241,Fruängen
Bella Donna,fast_food,Snabbmat,Fruängsgatan,,59.2853202,17.9631433,Fruängen
Grillhörnan,fast_food,Snabbmat,Fruängsplan,,59.2857793,17.9652246,Fruängen
Bigges,fast_food,Snabbmat,Fruängsgatan,,59.2852617,17.9646355,Fruängen
,parking,Parkering,Hökmossevägen,,59.2899947,17.988834,Västberga
,parking,Parkering,Hökmossevägen,,59.2901371,17.9896065,Västberga
Cafékoppen,cafe,Kafé,Fruängstorget,4,59.2858337,17.9634488,Fruängen
66 Kvadrat Sushi,restaurant,Restaurang,Fruängsgatan,,59.2847551,17.9618674,Fruängen
Pizzeria Tropicana,fast_food,Snabbmat,Vasaloppsvägen,,59.2937875,17.9655034,Västertorp
Apotek Hjärtat,pharmacy,Apotek,Störtloppsvägen,,59.2940587,17.9669036,Västertorp
Kronans Apotek,pharmacy,Apotek,Annebodavägen,4-6,59.2847122,18.0301247,Älvsjö
Kronans Apotek,pharmacy,Apotek,Telefonplan,,59.2986734,17.9970116,Midsommarkransen
Pepe Nero,restaurant,Restaurang,Tivolivägen,2,59.2951017,18.0048473,Västberga
Pizzeria Spader Dam,restaurant,Restaurang,Jenny Linds Gata,,59.2882766,17.9686475,Fruängen
,fast_food,Snabbmat,Störtloppsvägen,,59.2921669,17.9681563,Västertorp
Korfu Orfa,restaurant,Restaurang,Sparbanksvägen,,59.2976427,17.9826086,Hägerstensåsen
Wong Kee,restaurant,Restaurang,Grönbrinksgatan,,59.3069965,18.0290177,Liljeholmen
Gröna Dalen,restaurant,Restaurang,Gröndalsvägen,,59.3160058,18.0111341,Gröndal
Thai Rung,restaurant,Restaurang,Liljeholmstorget,,59.3104328,18.0223051,Liljeholmen
Di Metro,fast_food,Snabbmat,Liljeholmstorget,,59.3101026,18.0220192,Liljeholmen
McDonald's,fast_food,Snabbmat,Liljeholmstorget,,59.3104032,18.0229847,Liljeholmen
Coop Liljeholmen,supermarket,Matbutik,Liljeholmstorget,,59.3106203,18.0235883,Liljeholmen
Äldreboendet Trekanten,restaurant,Restaurang,Trekantsstranden,,59.3134648,18.0181386,Liljeholmen
Liljeholmstorget,parking,Parkering,Nybohovsbacken,,59.3091934,18.0239842,Liljeholmen
Liljeholmens Grill,fast_food,Snabbmat,Liljeholmstorget,,59.3100673,18.0218658,Liljeholmen
KFC,fast_food,Snabbmat,Liljeholmstorget,,59.3097444,18.0221382,Liljeholmen
Bravo,cafe,Kafé,Liljeholmstorget,,59.3101203,18.0232131,Liljeholmen
Lidl,supermarket,Matbutik,Liljeholmstorget,,59.3100484,18.0233359,Liljeholmen
Bara Vedugnspizza,restaurant,Restaurang,Örby Slottsväg,48,59.2797601,18.0342466,Örby slott
Bella Notte,restaurant,Restaurang,Tegelbruksvägen,,59.3023424,18.0141062,Midsommarkransen
Koi Sushi,fast_food,Snabbmat,Hägerstensvägen,,59.3053498,17.9975035,Aspudden
Mama Ye's,restaurant,Restaurang,Sjövikstorget,,59.3075449,18.0301795,Liljeholmen
ICA Kvantum Liljeholmen,supermarket,Matbutik,Liljeholmstorget,,59.3094423,18.0222688,Liljeholmen
Willys,supermarket,Matbutik,Nybohovsbacken,,59.3093766,18.0211932,Liljeholmen
Brisket & friends,fast_food,Snabbmat,Upplagsvägen,,59.2994274,18.0216412,Västberga
Morningstar Cafe,restaurant,Restaurang,Drivhjulsvägen,,59.2967508,18.019543,Västberga
Hanna Rydhs förskola,kindergarten,Skola,Hanna Rydhs Gata,,59.2866056,17.9743066,Fruängen
Coop Midsommarkransen,supermarket,Matbutik,Svandammsvägen,20,59.301647,18.0124794,Midsommarkransen
Svenska Sushiköket,restaurant,Restaurang,Tellusborgsvägen,76,59.3003552,18.0040262,Midsommarkransen
Pizzeria Fellini,fast_food,Snabbmat,Midsommarvägen,,59.300644,18.0121602,Midsommarkransen
Kransens Wok,fast_food,Snabbmat,Tegelbruksvägen,,59.3031402,18.0127352,Midsommarkransen
Tellus Pizza,fast_food,Snabbmat,Vattenledningsvägen,,59.3020127,18.0082047,Midsommarkransen
Nygammalt,restaurant,Restaurang,Vattenledningsvägen,,59.2998782,18.0046563,Midsommarkransen
Pino,fast_food,Snabbmat,Nioörtsvägen,,59.301504,18.0160105,Midsommarkransen
The Swan,restaurant,Restaurang,Erikslundsgatan,,59.3006861,18.014473,Midsommarkransen
Restaurang Udden,restaurant,Restaurang,Schlytersvägen,,59.3064868,18.006486,Aspudden
5,parking,Parkering,Mässvägen,1,59.2775914,18.018868,Liseberg
Hotell,parking,Parkering,Mässvägen,1,59.2767369,18.0170351,Liseberg
6,parking,Parkering,Mässvägen,1,59.2773462,18.0183424,Liseberg
4,parking,Parkering,Mässvägen,1,59.2778331,18.0193847,Liseberg
7,parking,Parkering,Mässvägen,1,59.2771153,18.0178473,Liseberg
8,parking,Parkering,Mässvägen,1,59.2768746,18.017332,Liseberg
,parking,Parkering,Hildebergsvägen,28,59.3027762,18.0289354,Liljeholmen
Chicha 08,restaurant,Restaurang,Ingenjörsvägen,,59.3064952,18.0256387,Liljeholmen
Pepe Nero,restaurant,Restaurang,Sjöviksvägen,,59.3060136,18.032393,Liljeholmen
Roots & Soil,restaurant,Restaurang,Årstaängsvägen,,59.3097676,18.028177,Liljeholmen
Lisebergs Café & Matsal,restaurant,Restaurang,Annebodavägen,23-25,59.2871214,18.0266966,Älvsjö
Hinode Sushi,fast_food,Snabbmat,Götalandsvägen,253,59.2793638,18.004151,Älvsjö
Bapuji,restaurant,Restaurang,Älvsjövägen,2,59.2783471,18.0063075,Liseberg
Älvgården Kök & Bar,restaurant,Restaurang,Älvsjövägen,7,59.2780961,18.0061133,Liseberg
Vår Pizza,restaurant,Restaurang,Johan Skyttes Väg,218,59.277762,18.0018118,Liseberg
Cafe Gården,cafe,Kafé,Sedelvägen,20,59.2961996,17.9830405,Hägerstensåsen
Aspuddens apotek,pharmacy,Apotek,Erik Segersälls Väg,,59.3061293,18.000954,Aspudden
Bombay Taj,restaurant,Restaurang,Hägerstensvägen,,59.3055028,18.0031363,Aspudden
Mums,fast_food,Snabbmat,Hägerstensvägen,,59.305703,18.001019,Aspudden
EPA,fast_food,Snabbmat,Hägerstensvägen,,59.3054736,18.0018403,Aspudden
Gröndals Apotek,pharmacy,Apotek,Gröndalsvägen,,59.316151,18.0123077,Gröndal
Café Hitom,cafe,Kafé,Klaviaturgatan,11,59.2979163,18.0001688,Västberga
Café Momo,cafe,Kafé,Liljeholmstorget,,59.3098599,18.0217484,Liljeholmen
Delfin,restaurant,Restaurang,Gröndalsvägen,,59.3151188,18.0149853,Gröndal
DIN-DIN Club,restaurant,Restaurang,Sjövikstorget,,59.3081563,18.0291693,Liljeholmen
German Beer Hall Liljeholmen,restaurant,Restaurang,Buteljgatan,,59.3083331,18.0296139,Liljeholmen
Älvsjö Pizzeria,restaurant,Restaurang,Älvsjövägen,90,59.2849116,17.9931883,Älvsjö
Memozin Kolgrill,restaurant,Restaurang,Älvsjövägen,90,59.2848081,17.9933848,Älvsjö
Långbro Pizzeria,fast_food,Snabbmat,Svartlösavägen,79,59.2809246,17.9860678,Älvsjö
Klockhusköket,restaurant,Restaurang,Glasfibergatan,6,59.2808036,18.0013698,Älvsjö
Stoff,cafe,Kafé,Klubbevägen,,59.273582,17.9954645,Långsjö
Megagrillen,fast_food,Snabbmat,Johan Skyttes Väg,188,59.278964,18.0084016,Älvsjö
Hökmossens kaffestuga,restaurant,Restaurang,Hökmossevägen,22,59.2919271,17.9951927,Västberga
Cafe Elektra,cafe,Kafé,Elektravägen,33,59.2943422,18.0090461,Västberga
Djurgymnasiet,school,Skola,Elektravägen,,59.2947791,18.0105778,Västberga
Bakstugan i Västertorp,cafe,Kafé,Vasaloppsvägen,,59.294539,17.9668412,Västertorp
Shinto Restaurang,restaurant,Restaurang,Solberga Hagväg,5,59.279555,18.0086807,Älvsjö
Svenska Hamburgerköket,fast_food,Snabbmat,Tellusborgsvägen,78,59.3001133,18.0039844,Midsommarkransen
Kronans Apotek,pharmacy,Apotek,Västbergavägen,4,59.2935847,18.0048911,Västberga
Arken,kindergarten,Skola,Selmedalsringen,15,59.3070434,17.9800902,Hägersten
Indian Garden,restaurant,Restaurang,Sjövikstorget,,59.3079045,18.0286974,Liljeholmen
,kindergarten,Skola,Aspuddsstigen,,59.3092342,17.9855773,Aspudden
Sushi Ureshii,restaurant,Restaurang,Sedelvägen,28,59.296068,17.9823624,Hägerstensåsen
Staffans trafikskola,driving_school,Trafikskola,Långbrodalsvägen,,59.2799024,18.0011743,Liseberg
Parma Kök & Bar,restaurant,Restaurang,Fruängstorget,12,59.2857916,17.96335,Fruängen
Segeltorps trafikskola,driving_school,Trafikskola,Gamla Södertäljevägen,,59.2836671,17.9573967,Fruängen
Chong Qing,restaurant,Restaurang,Liljeholmsvägen,,59.3128576,18.028359,Liljeholmen
Chamsin Grill,fast_food,Snabbmat,Liljeholmsvägen,,59.3128175,18.0281034,Liljeholmen
Vivels,cafe,Kafé,Älvsjö Torg,6,59.2790794,18.0093028,Älvsjö
JM Movement,physiotherapist,Fysioterapeut,Örby Slottsväg,,59.2807721,18.0328046,Örby slott
Älvsjö Öron-näsa-hals,doctor,Vårdcentral,Johan Skyttes Väg,198,59.278468,18.0069728,Älvsjö
Butsaya,restaurant,Restaurang,Midsommargränd,,59.2990374,18.0034908,Västberga
Snabb & Lugn Café,cafe,Kafé,Älvsjö Stationsgata,11,59.2784904,18.0108359,Älvsjö
Lius kök,restaurant,Restaurang,Vantörsvägen,279,59.2862001,17.9531322,Fruängen
Spiskroken,restaurant,Restaurang,Västbergavägen,,59.2928504,18.0082976,Västberga
Älvsjö Tandläkaren,dentist,Tandläkare,Johan Skyttes Väg,202,59.2780057,18.0059938,Liseberg
Mejram,restaurant,Restaurang,Karusellplan,,59.2981398,18.0105611,Västberga
Asian Garden,restaurant,Restaurang,Karusellplan,,59.2980092,18.0104411,Västberga
Istanbul Kolgrill,restaurant,Restaurang,Västberga gårdsväg,,59.2915406,18.012289,Västberga
Västbergakällan,restaurant,Restaurang,Drivhjulsvägen,,59.2959258,18.0176833,Västberga
Västberga Grillen,restaurant,Restaurang,Vretensborgsvägen,20,59.299127,18.0160865,Västberga
Nancys Freshfood,restaurant,Restaurang,Vretensborgsvägen,,59.2985196,18.0146522,Västberga
R Han Thai Take Away,fast_food,Snabbmat,Safirgränd,,59.2918739,17.99975,Solberga
WKB Västberga,restaurant,Restaurang,Västberga Allé,36,59.293817,18.0111796,Västberga
Erik's,restaurant,Restaurang,Sjöviksbacken,,59.3045093,18.0304702,Liljeholmen
The meeting bar & restaurant,restaurant,Restaurang,Hägerstensvägen,,59.3050438,17.9921902,Aspudden
Tokai sushi,restaurant,Restaurang,Tellusgången,27,59.2987356,17.990757,Midsommarkransen
,fast_food,Snabbmat,Störtloppsvägen,,59.2919715,17.9684317,Västertorp
Elektrikergymnasiet,school,Skola,Radiusbacken,,59.298364,18.0040943,Västberga
La Favorita,restaurant,Restaurang,Bäckvägen,,59.3016611,17.9883394,Hägerstensåsen
Il Forno di Fruängen,restaurant,Restaurang,Vantörsvägen,282,59.286271,17.9508633,Fruängen
GAIA,restaurant,Restaurang,Vattenledningsvägen,,59.3024341,18.0086666,Midsommarkransen
Pizza Örnsberg,fast_food,Snabbmat,Junkergatan,,59.3059603,17.9915981,Aspudden
Hägerstens tandvårdsteam,dentist,Tandläkare,Sparbanksvägen,20-22,59.2975127,17.9826565,Hägerstensåsen
Verkets Matsal,restaurant,Restaurang,Näbbskostigen,,59.2895192,18.0159371,Västberga
Rain,restaurant,Restaurang,Tellusborgsvägen,84,59.2994428,18.0034208,Midsommarkransen
Ica Nära Älvsjö,supermarket,Matbutik,Svartlösavägen,181,59.2726121,17.9779185,Långsjö
Lycka Thai & Sushi,fast_food,Snabbmat,Snöripsvägen,,59.2729767,17.9777737,Långsjö
Thanita's Thai,fast_food,Snabbmat,Bäckvägen,141a,59.3012951,17.9865035,Hägerstensåsen
,cafe,Kafé,Personnevägen,,59.2980588,17.9760594,Hägersten
Kronans Apotek,pharmacy,Apotek,Älvsjökopplet,,59.2750688,18.0130154,Liseberg
Alma folkhögskola,school,Skola,Årstaängsvägen,,59.308828,18.026912,Liljeholmen
Kunskapsgymnasiet,school,Skola,Buteljgatan,,59.309114,18.027307,Liljeholmen
Apoteket,pharmacy,Apotek,Älvsjö Torg,17A,59.2785746,18.0090219,Älvsjö
Mälarhöjdparkens förskola,kindergarten,Skola,Barbro Alvings Gata,,59.285248,17.951836,Fruängen
Olympen Älvsjö Gårds Förskola,kindergarten,Skola,Älvsjö Gårdsväg,,59.277263,18.0100226,Liseberg
Hinode Wok,fast_food,Snabbmat,Älvsjö Torg,15A,59.2786381,18.0093297,Älvsjö
Krubb,restaurant,Restaurang,Telefonvägen,22,59.298455,17.9953077,Midsommarkransen
CASA del LAGO,restaurant,Restaurang,Strandängsstigen,,59.2653194,17.9754574,Långsjö
,cafe,Kafé,Gårdstigen,,59.2653765,17.9753585,Långsjö
Herrängens gård,cafe,Kafé,Segeltorpsvägen,49-51,59.273165,17.9608766,Älvsjö
Subway,fast_food,Snabbmat,Älvsjö Torg,13B,59.2786951,18.0094843,Älvsjö
Förskolan Svandammsgården,kindergarten,Skola,Cedergrensvägen,5,59.3031173,18.0027562,Midsommarkransen
Wild Flower Bakehouse Café,cafe,Kafé,Kransbindarvägen,,59.3024732,18.001802,Midsommarkransen
Jarla Trafikskola,driving_school,Trafikskola,Johan Skyttes Väg,189C,59.278502,18.0080988,Älvsjö
Stenugnsbröd På Söder,cafe,Kafé,Svandammsvägen,,59.3014783,18.0130327,Midsommarkransen
,kindergarten,Skola,Vasaloppsvägen,110,59.2921881,17.960868,Västertorp
Pizza,fast_food,Snabbmat,Aklejavägen,,59.2772451,17.9660733,Älvsjö
Island Hoppers,restaurant,Restaurang,Instrumentvägen,,59.3055572,17.9826465,Hägersten
Pepe Rosso,fast_food,Snabbmat,Älvsjövägen,5,59.2777849,18.0060419,Liseberg
Grappolo D'uva,restaurant,Restaurang,Älvsjö Torg,19A,59.2787636,18.0086926,Älvsjö
Internationella Engelska Skolan,school,Skola,Armborstvägen,,59.2808944,18.0054482,Älvsjö
Thelins,cafe,Kafé,Johan Skyttes Väg,185,59.2787234,18.008594,Älvsjö
WRAP'Z,restaurant,Restaurang,Svandammsvägen,5,59.3018326,18.015297,Midsommarkransen
Rosteriet,cafe,Kafé,Rosterigränd,,59.3119336,18.0239912,Liljeholmen
Rosteriet,kindergarten,Skola,Rosterigränd,,59.31154,18.0226824,Liljeholmen
Svedenskolan,school,Skola,Mälarhöjdsvägen,23,59.3013227,17.9511692,Mälarhöjden
Marrakech Resturang,restaurant,Restaurang,Årstaängsvägen,,59.3096235,18.030495,Liljeholmen
Via loreto,restaurant,Restaurang,Årstaängsvägen,,59.3095015,18.0283179,Liljeholmen
Milennium,parking,Parkering,Årstaängsvägen,,59.3096979,18.0284698,Liljeholmen
Let's Eat Sushi,restaurant,Restaurang,Sjöviksvägen,,59.3082152,18.0270286,Liljeholmen
Förskolan Marievik,kindergarten,Skola,Marieviksgatan,,59.30843,18.0276452,Liljeholmen
MGL Sushi,restaurant,Restaurang,Fredsborgstorget,,59.3072681,18.0268205,Liljeholmen
Tant Maja och Fröken Emilia,cafe,Kafé,Marieviksgatan,,59.3081333,18.0272421,Liljeholmen
Sjöviks pizza & kebab,fast_food,Snabbmat,Grönbrinksgatan,,59.3070687,18.0292022,Liljeholmen
Haandi,restaurant,Restaurang,Sjöviksvägen,,59.3064883,18.0322898,Liljeholmen
Vår Pizza,restaurant,Restaurang,Erik Segersälls Väg,,59.3059146,18.0011339,Aspudden
Pizzabagaren,fast_food,Snabbmat,Tellusborgsvägen,,59.298133,18.0025128,Västberga
Hanami Hawaiian Poké & Sushi,restaurant,Restaurang,Sjöviksvägen,,59.3060444,18.0325963,Liljeholmen
,parking,Parkering,Västertorpsplan,,59.2921447,17.9689642,Västertorp
,parking,Parkering,Störtloppsvägen,,59.2919165,17.9686756,Västertorp
Lilla Paradiset,fast_food,Snabbmat,Örnsbergsvägen,,59.3055597,17.9890185,Aspudden
Apoteket,pharmacy,Apotek,Axelsbergs Torg,2,59.304169,17.9748559,Hägersten
ICA Supermarket Telefonplan,supermarket,Matbutik,Tellusborgsvägen,87,59.2966808,18.0014892,Västberga
Förskolan Höjden,kindergarten,Skola,Sturehillsvägen,,59.3037733,18.0320942,Liljeholmen
Brödernas,restaurant,Restaurang,Sjövikskajen,,59.3066191,18.0334682,Liljeholmen
Café Cul-De-Sac,cafe,Kafé,Lusuddsvägen,,59.316319,18.0163716,Gröndal
Del Mare,fast_food,Snabbmat,Nybohovsbacken,,59.3090971,18.0155531,Liljeholmen
,parking,Parkering,Årsta Skolgränd,,59.301734,18.0314313,Liljeholmen
Biocafé Tellus,cafe,Kafé,Vattenledningsvägen,,59.3019499,18.0075039,Midsommarkransen
Thaimat Take Away,fast_food,Snabbmat,Slättgårdsvägen,,59.3007035,17.957103,Mälarhöjden
Bakom hörnet,restaurant,Restaurang,Midsommarvägen,,59.299527,18.0053741,Midsommarkransen
Masahiro,fast_food,Snabbmat,Tellusborgsvägen,,59.2982973,18.0026717,Västberga
Bonne Femme,cafe,Kafé,Erik Segersälls Väg,,59.3062326,18.0008701,Aspudden
Saigon House,restaurant,Restaurang,Hägerstensvägen,,59.3056332,17.9983257,Aspudden
Måsens förskola,kindergarten,Skola,Blommensbergsvägen,,59.3058094,17.9934181,Aspudden
Katrinebergs förskola,kindergarten,Skola,Katrinebergsbacken,24,59.311899,18.0269547,Liljeholmen
Körkortshuset,driving_school,Trafikskola,Nybohovsbacken,,59.3099318,18.0250845,Liljeholmen
Liljeholmens bilskola,driving_school,Trafikskola,Liljeholmstorget,,59.3105393,18.0221584,Liljeholmen
Sushi by Rino,restaurant,Restaurang,Svartlösavägen,52,59.2842313,17.9855051,Älvsjö
Parkfiken,cafe,Kafé,Torsten Almsstigen,,59.3076579,17.9949017,Aspudden
Liljeholmens gymnasium,school,Skola,Lövholmsvägen,,59.3128445,18.0244072,Liljeholmen
Prepp,cafe,Kafé,Årstaängsvägen,,59.310603,18.0297263,Liljeholmen
Furellios Ristorante,restaurant,Restaurang,Nyårsvägen,,59.3025113,17.994733,Midsommarkransen
Bonne Femme Stenungsbageri,cafe,Kafé,Midsommarvägen,,59.2995714,18.0041699,Midsommarkransen
Xi'an Köket,restaurant,Restaurang,Bäckvägen,,59.3024092,17.994269,Midsommarkransen
A.B.Café,cafe,Kafé,Valborgsmässovägen,34,59.2995931,17.998632,Midsommarkransen
NIDa Catering och festvåning,restaurant,Restaurang,Marieviksgatan,,59.3100886,18.03051,Liljeholmen
Texas Longhorn,restaurant,Restaurang,Götalandsvägen,238,59.2801143,18.00389,Älvsjö
800 Grader,restaurant,Restaurang,Cedergrensvägen,2,59.3034407,18.002799,Midsommarkransen
Distriktstandvården Liljeholmen,dentist,Tandläkare,Liljeholmstorget,,59.309844,18.021877,Liljeholmen
Teso Sushi,restaurant,Restaurang,Kabelverksgatan,16,59.2823244,18.0028619,Älvsjö
Förskola Skattkistan,kindergarten,Skola,Sandalettgatan,,59.2820736,18.0075601,Älvsjö
Oh Poké,fast_food,Snabbmat,Älvsjö Stationsgata,,59.2796169,18.0120045,Älvsjö
Lubnan Kajen,restaurant,Restaurang,Sjövikskajen,,59.3061152,18.0354217,Liljeholmen
Bastard Burgers,restaurant,Restaurang,Liljeholmstorget,5,59.309643,18.0224993,Liljeholmen
Slow Hands,cafe,Kafé,Sedelvägen,35,59.2952723,17.9796325,Hägerstensåsen
Thailaan,supermarket,Matbutik,Nybohovsbacken,,59.3093456,18.0214941,Liljeholmen
Veloce Pizza,restaurant,Restaurang,Kabelverksgatan,25,59.2820466,18.002632,Älvsjö
Sushi Yama,restaurant,Restaurang,Liljeholmstorget,,59.3095845,18.0218108,Liljeholmen
TOVE,restaurant,Restaurang,Sjöviksbacken,,59.3049772,18.030666,Liljeholmen
Coop Svandammsplan,supermarket,Matbutik,Pingstvägen,,59.3010865,18.0032136,Midsommarkransen
,parking,Parkering,Vattenledningsvägen,,59.2999958,18.0043196,Midsommarkransen
Apotek Hjärtat,pharmacy,Apotek,Fruängsgången,5,59.2855373,17.9641768,Fruängen
,parking,Parkering,Årsta Skolgränd,,59.3011881,18.0302159,Liljeholmen
Älvsjö Centrum Vårdcentral,doctor,Vårdcentral,Älvsjö Stationsgata,,59.2780408,18.0085476,Älvsjö
Stockholms Filmskola,school,Skola,Karusellplan,11,59.2980897,18.0109296,Västberga
Midoris,restaurant,Restaurang,Sjövikskajen,,59.3058102,18.0367235,Liljeholmen
Thai Wok Orkidé,restaurant,Restaurang,Bäckvägen,80,59.3022428,17.9935758,Midsommarkransen
Ponte & Simone,restaurant,Restaurang,Sjövikskajen,,59.3060783,18.0356973,Liljeholmen
Förskolan Sjötorget,kindergarten,Skola,Karaffgatan,,59.3082451,18.02796,Liljeholmen
3Sixty,restaurant,Restaurang,Sjövikskajen,,59.3061695,18.0351583,Liljeholmen
Färgfabrikens Kafé,restaurant,Restaurang,Lövholmsbrinken,,59.3153217,18.0193396,Liljeholmen
moa lärcentrum,college,Skola,Östra Mässkopplet,,59.2766879,18.0096993,Liseberg
Pizzeria Delize,fast_food,Snabbmat,Skridskovägen,,59.2939651,17.9768288,Västertorp
Piatto Fresco,restaurant,Restaurang,Årsta Skolgränd,10,59.3015269,18.0297314,Liljeholmen
Lulu,restaurant,Restaurang,Tellusborgsvägen,77A,59.2979966,18.0023627,Västberga
Skin Team,doctor,Vårdcentral,Fruängsgatan,,59.2846062,17.9604355,Fruängen
My Favorit Grill,restaurant,Restaurang,Doktor Widerströms Gata,,59.2853426,17.95617,Fruängen
Fruängens Trafikskola,driving_school,Trafikskola,Fruängsgatan,,59.284921,17.961645,Fruängen
Sushi & Poke,restaurant,Restaurang,Vantörsvägen,,59.2861904,17.9532279,Fruängen
Il Forno,restaurant,Restaurang,Vantörsvägen,,59.2863117,17.9507629,Fruängen
Grill&Wok Stugan,restaurant,Restaurang,Varuvägen,,59.2717762,18.0071086,Älvsjö
Sushi Kawa,restaurant,Restaurang,Fruängstorget,6,59.2858028,17.9638267,Fruängen
Fruängens Tandläkare,dentist,Tandläkare,Elsa Brändströms Gata,,59.2884181,17.9629296,Fruängen
Fruängstandläkarna,dentist,Tandläkare,Elsa Brändströms Gata,,59.2882672,17.9630587,Fruängen
Fruängens Familjetandvård,dentist,Tandläkare,Hanna Paulis Gata,,59.2867241,17.9635245,Fruängen
Babas,fast_food,Snabbmat,Fruängstorget,6,59.2857997,17.9639333,Fruängen
Fruängen Dental,dentist,Tandläkare,Fruängsgången,,59.285451,17.9637336,Fruängen
Home Food,restaurant,Restaurang,Fruängsplan,,59.2859601,17.9652138,Fruängen
Folktandvården,dentist,Tandläkare,Västertorpsplan,,59.2925671,17.9689012,Västertorp
Surdegspizza,restaurant,Restaurang,Vasaloppsvägen,,59.2937752,17.9655439,Västertorp
Västertorps Hjärta,restaurant,Restaurang,Störtloppsvägen,30,59.2936722,17.9672747,Västertorp
Vår Pizza,restaurant,Restaurang,Västertorpsplan,,59.2924658,17.9689861,Västertorp
Samtal Dental,dentist,Tandläkare,Jordkabelgatan,2,59.2822406,18.0020749,Älvsjö
Maritza Fixar,doctor,Vårdcentral,Götalandsvägen,,59.2802531,18.0130392,Älvsjö
Älvsjö Tandvård,dentist,Tandläkare,Prästgårdsgränd,,59.280285,18.0112353,Älvsjö
The Garden,restaurant,Restaurang,Mässvägen,1,59.2767476,18.0113337,Liseberg
Ichiban,restaurant,Restaurang,Skridskovägen,,59.2940655,17.9767838,Västertorp
Axelsbergs Tandläkarna,dentist,Tandläkare,Selmedalsvägen,42;44;46,59.3046899,17.9740205,Hägersten
Cachay,cafe,Kafé,Skridskovägen,,59.2940156,17.976807,Västertorp
Tang Ji,restaurant,Restaurang,Axelsbergs Torg,2,59.3042013,17.9748353,Hägersten
Tandläkare,dentist,Tandläkare,Hägerstensvägen,,59.3009479,17.9580862,Hägersten
Brödernas,restaurant,Restaurang,Brådstupsvägen,,59.3041131,17.9589797,Hägersten
Catarina,restaurant,Restaurang,Sparbanksvägen,,59.2951096,17.9838697,Hägerstensåsen
Topoli,restaurant,Restaurang,Korpmossevägen,,59.2910859,17.9904856,Västberga
Holy Kebab,restaurant,Restaurang,Telefonplan,2,59.2990773,17.9955577,Midsommarkransen
Texas Longhorn,restaurant,Restaurang,Telefonplan,2,59.2990535,17.9950864,Midsommarkransen
Brödernas,restaurant,Restaurang,LM Ericssons Väg,,59.2990343,17.9952838,Midsommarkransen
Gigis Hörna,restaurant,Restaurang,Tellusgången,,59.2987978,17.9896584,Midsommarkransen
Nataljas Medicinska Fotvård,doctor,Vårdcentral,Midsommarvägen,,59.2995544,18.0046911,Midsommarkransen
Noli Deli,restaurant,Restaurang,Midsommarparken,,59.3012561,18.0120163,Midsommarkransen
Målarverkstadens Bistro,cafe,Kafé,Hägerstensvägen,,59.3054014,17.9937227,Aspudden
Thurson & Engquist,dentist,Tandläkare,Botvidsgatan,,59.3060239,17.9982697,Aspudden
Lokanta,restaurant,Restaurang,Kristalltorget,,59.2899188,17.9989496,Solberga
,restaurant,Restaurang,Kristalltorget,,59.290128,17.9996432,Solberga
Tandvård,dentist,Tandläkare,Örby Slottsväg,,59.2802409,18.0337115,Örby slott
Hägerstens trafikskola,driving_school,Trafikskola,Hägerstensvägen,,59.3058983,18.0076915,Aspudden
Kim Ban Ban,restaurant,Restaurang,Nybohovsbacken,,59.3095202,18.021603,Liljeholmen
Förskolan Metronomen,kindergarten,Skola,Radiusbacken,,59.2981805,18.0041802,Västberga
Dentalisterna,dentist,Tandläkare,Liljeholmsvägen,,59.3118095,18.024004,Liljeholmen
Thelins konditori,cafe,Kafé,Gröndalsvägen,,59.3154302,18.0013803,Gröndal
Beirut Lounge,restaurant,Restaurang,Fruängstorget,6,59.2857974,17.9640318,Fruängen
Café Nero,cafe,Kafé,Liljeholmstorget,,59.3097814,18.022905,Liljeholmen
Il Forno,restaurant,Restaurang,Liljeholmstorget,,59.309555,18.0220841,Liljeholmen
Kebab-ish,restaurant,Restaurang,Liljeholmstorget,,59.3097263,18.022769,Liljeholmen
Sankta Birgittas folkhögskola,college,Skola,Götalandsvägen,242,59.2799661,18.0032115,Älvsjö
Naked fish,restaurant,Restaurang,Fågeltorget,,59.3055101,17.9931902,Aspudden
La Casa de Planka,restaurant,Restaurang,Klockhusgränd,1A,59.2810236,18.0003712,Liseberg
Vittra Telefonplan,school,Skola,Snickerigatan,,59.2995197,17.9894571,Midsommarkransen
IT-Högskolan,college,Skola,Trekantsvägen,,59.3143077,18.023898,Liljeholmen
Långbroparks förskola,kindergarten,Skola,Stora Mans väg,,59.2812394,17.9753115,Älvsjö
Magic Masala,restaurant,Restaurang,Nioörtsvägen,24,59.3015599,18.016121,Midsommarkransen
Midsommarkransens trafikskola,driving_school,Trafikskola,Tegelbruksvägen,8,59.3025534,18.014335,Midsommarkransen
Smash N Grab,fast_food,Snabbmat,Fredsborgsgatan,,59.3059707,18.0303074,Liljeholmen
Förskolan Sjövik,kindergarten,Skola,Fredsborgsgatan,,59.3063015,18.0296202,Liljeholmen
Förskolan Kajen,kindergarten,Skola,Fredsborgsgatan,,59.3061946,18.0303717,Liljeholmen
Förskolan Ängen,kindergarten,Skola,Marieviksgatan,,59.3076889,18.0271331,Liljeholmen
Förskolan Torget,kindergarten,Skola,Ingenjörsvägen,,59.3071827,18.027683,Liljeholmen
Förskolan Parken,kindergarten,Skola,Förmansvägen,,59.3064509,18.0272975,Liljeholmen
Förskolan Berget,kindergarten,Skola,Sjöviksvägen,,59.3054813,18.0348577,Liljeholmen
Kringelgården Kransen,cafe,Kafé,Radiusbacken,,59.2985575,18.0029163,Västberga
STI stockholms tekniska institute,college,Skola,Liljeholmstorget,,59.3098582,18.0216317,Liljeholmen
Baltazar,kindergarten,Skola,Västerängsvägen,,59.2763295,17.985566,Älvsjö
,parking,Parkering,Pukslagargatan,,59.2732814,17.9947972,Långsjö
,school,Skola,Tellusborgsvägen,,59.3041317,18.0157846,Midsommarkransen
3,parking,Parkering,Parkeringsvägen,,59.2787895,18.0208082,Liseberg
,parking,Parkering,Personnevägen,,59.2897242,17.9841097,Hägerstensåsen
,parking,Parkering,Segeltorpsvägen,,59.2729385,17.9614319,Älvsjö
Stockholm International Academy,school,Skola,Sulvägen,52,59.2842638,18.0075451,Solberga
,parking,Parkering,Elsa Brändströms Gata,,59.287666,17.9640026,Fruängen
Kängvägen,parking,Parkering,Kängvägen,,59.2825036,18.0150463,Solberga
,kindergarten,Skola,Sulvägen,62,59.2843302,18.0098802,Solberga
,parking,Parkering,Lövholmsvägen,,59.313552,18.0221923,Liljeholmen
,parking,Parkering,Sylvestergatan,,59.2871127,18.0277341,Älvsjö
Lisebergs vårdcentral,doctor,Vårdcentral,Annebodavägen,4-6,59.2848365,18.0303853,Älvsjö
Midsommarkransens gymnasium,school,Skola,Tellusborgsvägen,,59.3038939,18.0157573,Midsommarkransen
,parking,Parkering,Telefonvägen,,59.2988773,17.9991339,Midsommarkransen
Hjulmakaren,parking,Parkering,Västertorpsvägen,133,59.2892611,17.9520619,Mälarhöjden
Ellen Key,kindergarten,Skola,Fruängsgatan,,59.2838848,17.9672253,Fruängen
,parking,Parkering,Fruängsgatan,,59.2844864,17.9640866,Fruängen
,parking,Parkering,Fruängsgatan,,59.2852993,17.9640724,Fruängen
,parking,Parkering,Fruängsgatan,,59.2852147,17.9649626,Fruängen
,parking,Parkering,Ellen Keys Gata,,59.2841497,17.9664169,Fruängen
,parking,Parkering,Fruängsgatan,,59.2847946,17.9622084,Fruängen
Fruängens skola,school,Skola,Fruängsgatan,,59.2839201,17.9623159,Fruängen
,parking,Parkering,Västbergavägen,,59.2934772,18.0038837,Västberga
Kunskapsskolan,school,Skola,Ellen Keys Gata,,59.2882184,17.9650422,Fruängen
Pizzeria Lugano,restaurant,Restaurang,Fredrika Bremers Gata,63,59.2835794,17.970829,Fruängen
,parking,Parkering,Fruängstorget,,59.2860606,17.9641427,Fruängen
,parking,Parkering,Anna Sandströms Gata,,59.2883035,17.967379,Fruängen
,parking,Parkering,Ellen Keys Gata,,59.2872801,17.9670463,Fruängen
,parking,Parkering,Ellen Fries Gata,,59.2882755,17.970367,Fruängen
Mälarhöjdens skola,school,Skola,Sankt Mickelsgatan,,59.297416,17.9576631,Mälarhöjden
,parking,Parkering,Hanna Paulis Gata,,59.2874798,17.962513,Fruängen
,parking,Parkering,Eva Bonniers Gata,39,59.2866746,17.9603956,Fruängen
,parking,Parkering,Kata Dalströms Gata,,59.2856683,17.9587449,Fruängen
Hamburgarprinsen,fast_food,Snabbmat,Doktor Widerströms Gata,,59.2853476,17.9561503,Fruängen
,parking,Parkering,Doktor Widerströms Gata,33,59.2874035,17.9587041,Fruängen
,parking,Parkering,Doktor Widerströms Gata,,59.2861004,17.957094,Fruängen
,parking,Parkering,Doktor Widerströms Gata,,59.2854366,17.9568666,Fruängen
,parking,Parkering,Lotta Svärds gränd,,59.2876667,17.9541675,Fruängen
,kindergarten,Skola,Kata Dalströms Gata,,59.2855714,17.9581816,Fruängen
,parking,Parkering,Klubbensborgsvägen,,59.306472,17.9601369,Hägersten
,parking,Parkering,Klubbensborgsvägen,,59.3068508,17.9603508,Hägersten
Johan Skytteskolan F-6,school,Skola,Vantörsvägen,146,59.2766722,17.9817222,Älvsjö
Ekbackens förskola,kindergarten,Skola,Vantörsvägen,,59.2771159,17.9800542,Älvsjö
,parking,Parkering,Årstaängsvägen,,59.3113575,18.029828,Liljeholmen
,parking,Parkering,Sjövikstorget,,59.3075265,18.0290495,Liljeholmen
Lidl,supermarket,Matbutik,Elisabeth Tamms Gata,2,59.285627,17.9544506,Fruängen
Förskolan Sylvester,kindergarten,Skola,Sylvestergatan,,59.2851864,18.0298547,Älvsjö
Coop Mälarhöjden,supermarket,Matbutik,Hägerstensvägen,331,59.3013291,17.9573872,Hägersten
,parking,Parkering,Hägerstens Allé,,59.3048863,17.9761071,Hägersten
,parking,Parkering,Bergtallsvägen,,59.282534,17.9702642,Älvsjö
Långbro värdshus,restaurant,Restaurang,Stora Mans väg,4,59.282823,17.9708426,Älvsjö
Förskolan Äppelängen,kindergarten,Skola,Gimmerstavägen,,59.2817332,18.0355851,Östberga
,parking,Parkering,Ålgrytevägen,,59.2975301,17.9428479,Mälarhöjden
,parking,Parkering,Svandammsplan,,59.3005808,18.0036258,Midsommarkransen
,parking,Parkering,Tellusborgsvägen,,59.303207,18.0157948,Midsommarkransen
,parking,Parkering,Tellusborgsvägen,,59.304445,18.0137566,Midsommarkransen
,parking,Parkering,Nybohovsgränd,,59.3087419,18.018553,Liljeholmen
,parking,Parkering,Nybohovsgränd,,59.3079007,18.0206857,Liljeholmen
,parking,Parkering,Nybohovsbacken,,59.3087913,18.0215135,Liljeholmen
,kindergarten,Skola,Nybohovsbacken,,59.3079527,18.0157274,Liljeholmen
Nybohovsskolan,school,Skola,Nybohovsbacken,,59.3074119,18.0155509,Liljeholmen
,parking,Parkering,Skärslipargränd,,59.3066016,18.008841,Aspudden
,parking,Parkering,Vantörsvägen,,59.2802461,17.969014,Älvsjö
,parking,Parkering,Vantörsvägen,,59.279863,17.9702613,Älvsjö
,parking,Parkering,Långbrokungens Väg,,59.2809828,17.9680277,Älvsjö
,parking,Parkering,Långbrokungens Väg,,59.2807385,17.9682495,Älvsjö
,parking,Parkering,Älvsjö Gårdsväg,,59.2762879,18.011676,Liseberg
,parking,Parkering,Sedelvägen,,59.2958861,17.9810347,Hägerstensåsen
,parking,Parkering,Kata Dalströms Gata,,59.2856445,17.959186,Fruängen
,parking,Parkering,Eva Bonniers Gata,,59.2860887,17.960372,Fruängen
,parking,Parkering,Vinterviksvägen,,59.3110011,17.9922392,Aspudden
,parking,Parkering,Fredrika Bremers Gata,,59.2850928,17.973719,Fruängen
,parking,Parkering,Elin Wägners Gata,,59.2852353,17.9720936,Fruängen
,parking,Parkering,Fruängsgatan,,59.28399,17.9686818,Fruängen
,parking,Parkering,Agnes Lagerstedts Gata,,59.2843374,17.9696206,Fruängen
,parking,Parkering,Elsa Borgs Gata,,59.2827418,17.9649106,Fruängen
,parking,Parkering,Ellen Keys Gata,,59.283554,17.9654066,Fruängen
,parking,Parkering,Fruängsgatan,,59.284608,17.9675303,Fruängen
,parking,Parkering,Sjöviksbacken,,59.3022474,18.0281595,Liljeholmen
,parking,Parkering,Gröndalsvägen,,59.3136935,17.9884113,Gröndal
,parking,Parkering,Fredsborgsgatan,,59.3061649,18.0287406,Liljeholmen
,parking,Parkering,Snöflingebacken,,59.2952399,17.9742754,Västertorp
,parking,Parkering,Skidvägen,,59.2941833,17.9763672,Västertorp
,parking,Parkering,Skidvägen,,59.2945877,17.9754044,Västertorp
,parking,Parkering,Snöflingebacken,,59.2953023,17.9746862,Västertorp
Parkeringsdäck B,parking,Parkering,Selmedalsringen,,59.3066398,17.9818055,Hägersten
Parkeringsdäck A,parking,Parkering,Selmedalsringen,,59.3065597,17.9807889,Hägersten
,parking,Parkering,Västertorpsvägen,,59.2917466,17.9760979,Västertorp
,parking,Parkering,Västertorpsplan,,59.2925756,17.9684646,Västertorp
,parking,Parkering,Skridskovägen,,59.292765,17.9770655,Västertorp
,parking,Parkering,Personnevägen,,59.2923794,17.9782544,Västertorp
,parking,Parkering,Junkergatan,,59.3059291,17.9901973,Aspudden
,parking,Parkering,Klacktorget,,59.2871173,18.010169,Solberga
,parking,Parkering,Bäckvägen,,59.3037904,18.0012811,Midsommarkransen
,parking,Parkering,Götalandsvägen,,59.2845969,18.0300777,Örby slott
,parking,Parkering,Götalandsvägen,,59.2847457,18.030712,Örby slott
,parking,Parkering,Götalandsvägen,,59.2827349,18.0234863,Liseberg
,parking,Parkering,Tosterövägen,,59.279881,18.0340472,Örby slott
,parking,Parkering,Mellösavägen,,59.2818781,18.0251209,Liseberg
Förskolan Eken,kindergarten,Skola,Sulvägen,52,59.2838704,18.0077137,Solberga
Småfinkarna,kindergarten,Skola,Gripsholmsvägen,2,59.2841876,18.0333776,Örby slott
,parking,Parkering,Kristallvägen,,59.2889919,18.001134,Solberga
,parking,Parkering,Tosterövägen,,59.2792234,18.0314453,Örby slott
Sjöängsskolan,school,Skola,Rävsnäsvägen,,59.2803929,18.0276632,Örby slott
Förskolan Citrusgården,kindergarten,Skola,Folkparksvägen,161,59.2850611,18.0125602,Solberga
Förskolan Skogsgläntan,kindergarten,Skola,Sulvägen,,59.2842648,18.0100101,Solberga
,parking,Parkering,Skohornsbacken,,59.2873949,18.0152553,Solberga
,parking,Parkering,Lisebergsvägen,,59.2867392,18.0243941,Älvsjö
,parking,Parkering,Annebodavägen,,59.2876354,18.0268846,Älvsjö
Solberga hagväg 2,parking,Parkering,Götalandsvägen,,59.2799176,18.0106735,Älvsjö
Gunnars Pizzeria,fast_food,Snabbmat,Herrängsvägen,,59.2757484,17.9612266,Älvsjö
,parking,Parkering,Götalandsvägen,,59.2795115,18.009385,Älvsjö
,parking,Parkering,Solberga Hagväg,,59.2797335,18.0101617,Älvsjö
,parking,Parkering,Götalandsvägen,,59.2805658,18.0127649,Älvsjö
,parking,Parkering,Sandalettstigen,,59.2815906,18.0106359,Solberga
,parking,Parkering,Prästgårdsgränd,2,59.2802115,18.0117678,Älvsjö
,parking,Parkering,Götalandsvägen,,59.2808342,18.0140615,Älvsjö
,parking,Parkering,Götalandsvägen,,59.2806465,18.0133108,Älvsjö
,parking,Parkering,Vibyholmsvägen,,59.2801978,18.0308134,Örby slott
SL infartsparkering,parking,Parkering,Magelungsvägen,,59.2770644,18.0066673,Liseberg
,parking,Parkering,Lisebergsvägen,,59.2871405,18.0228084,Älvsjö
,parking,Parkering,Ada Nilssons gata,,59.2840356,17.9549064,Fruängen
,parking,Parkering,Midsommarvägen,,59.3005867,18.01255,Midsommarkransen
Eolshälls 4 H-gård,cafe,Kafé,Eolshällsvägen,10,59.3078856,17.9694819,Hägersten
Förskolan Solängen,kindergarten,Skola,Solberga Ängsväg,4,59.2812189,18.0137996,Älvsjö
,parking,Parkering,Lugntorpsvägen,,59.2979334,17.9575817,Mälarhöjden
,parking,Parkering,Sandalmakarbacken,,59.2837346,18.0123727,Solberga
Förskolan Pusslet,kindergarten,Skola,Mockasinvägen,,59.2834358,18.0157973,Solberga
Hamngården,kindergarten,Skola,Lusuddsvägen,,59.3162798,18.0150895,Gröndal
Affärsgymnasiet,school,Skola,Flygelgatan,,59.2979648,18.0014738,Västberga
,parking,Parkering,Lotta Svärds gränd,,59.2873451,17.954043,Fruängen
,parking,Parkering,Västertorpsvägen,,59.2895862,17.9510978,Mälarhöjden
,parking,Parkering,Storsvängen,,59.2906195,17.9534072,Mälarhöjden
,parking,Parkering,Västertorpsvägen,,59.2897603,17.9526505,Mälarhöjden
,parking,Parkering,Slättgårdsvägen,,59.2909274,17.9509296,Mälarhöjden
,parking,Parkering,Slättgårdsvägen,,59.2903906,17.9502668,Mälarhöjden
,parking,Parkering,Kransbindarvägen,,59.3028052,18.0012805,Midsommarkransen
,parking,Parkering,Cembalogatan,,59.2981456,17.9993527,Västberga
Nordiska musikgymnasiet,school,Skola,Katrinebergsbacken,4,59.3111877,18.0254667,Liljeholmen
,parking,Parkering,Danska Gränd,,59.2784089,18.0052239,Älvsjö
,parking,Parkering,Liljeholmsbron,,59.3122876,18.0299483,Liljeholmen
,parking,Parkering,Årstaängsvägen,,59.3125269,18.030879,Liljeholmen
,parking,Parkering,Selmedalsvägen,,59.3044893,17.9690429,Hägersten
,parking,Parkering,Selmedalsvägen,,59.3046157,17.9723429,Hägersten
,parking,Parkering,Selmedalsvägen,,59.3045362,17.9701355,Hägersten
,parking,Parkering,Selmedalsvägen,,59.3045773,17.9712139,Hägersten
,parking,Parkering,Selmedalsvägen,,59.3046457,17.9735136,Hägersten
Förskolan Prästängen,kindergarten,Skola,Prästgårdsgränd,,59.2812402,18.0104405,Älvsjö
,parking,Parkering,Nybodaringen,,59.3037215,18.0248447,Liljeholmen
,parking,Parkering,Parkeringsvägen,,59.2797967,18.0193574,Liseberg
Gröndalsskolan,school,Skola,Utkiksbacken,,59.3163103,18.0047083,Gröndal
Förskolan Smeden,kindergarten,Skola,Prylvägen,,59.2957701,17.9962776,Västberga
,parking,Parkering,Johan Skyttes Väg,,59.2779265,18.0045008,Liseberg
,parking,Parkering,Johan Skyttes Väg,,59.2779348,18.0051378,Liseberg
Ekensbergsskolan,school,Skola,Gröndalsvägen,,59.3144013,17.9873414,Gröndal
,parking,Parkering,Spikvägen,,59.2916295,17.9928335,Västberga
Bulten Fritids,kindergarten,Skola,Bultvägen,12,59.2952183,17.9936051,Västberga
,parking,Parkering,Hökmossevägen,38,59.2912189,17.9920999,Västberga
,parking,Parkering,Älvsjövägen,,59.2847496,17.9931179,Älvsjö
Förskolan Mockasinen,kindergarten,Skola,Blackensvägen,,59.2793337,18.0022148,Liseberg
Förskolan Regnbågen,kindergarten,Skola,Krattvägen,20,59.2850315,17.9874186,Älvsjö
Förskolan Sagoträdet,kindergarten,Skola,Långbrovägen,55,59.2810093,17.990263,Älvsjö
Förskolan Örtagården,kindergarten,Skola,Örtagårdsvägen,1,59.2801635,17.9953849,Långsjö
Förskolan Trumslagaren,kindergarten,Skola,Trumslagargatan,,59.2769087,17.9978247,Långsjö
Förskolan Matrisen,kindergarten,Skola,Långsjövägen,14B,59.2743242,17.9969155,Långsjö
Förskolan Upptäckarna,kindergarten,Skola,Långsjövägen,12,59.2746805,17.9977121,Långsjö
,parking,Parkering,Liljeholmsgränd,,59.3102995,18.0207713,Liljeholmen
Gamla Långbrodals skola,school,Skola,Linbodavägen,,59.2769805,17.9883532,Älvsjö
Västbergaskolan,school,Skola,Klensmedsvägen,4,59.2953224,17.9992969,Västberga
Förskolan Paletten,kindergarten,Skola,Huvudfabriksgatan,,59.2997913,17.9901159,Midsommarkransen
Daisy's express,fast_food,Snabbmat,Elektravägen,32,59.2952544,18.0109716,Västberga
,parking,Parkering,Åbyvägen,,59.2809661,18.0190739,Liseberg
,parking,Parkering,Slädgränd,,59.2896243,17.9631423,Västertorp
,parking,Parkering,Tellusgatan,,59.2979418,17.9897436,Midsommarkransen
,parking,Parkering,Älvsjö Ängsväg,,59.2765313,18.0151638,Liseberg
Café Uddvillan,cafe,Kafé,Klubbensborgsvägen,27,59.3076706,17.9584891,Hägersten
,parking,Parkering,Skidskyttevägen,,59.2906564,17.9710581,Västertorp
,parking,Parkering,Skidskyttevägen,,59.2920828,17.9702233,Västertorp
,parking,Parkering,Slalomvägen,,59.2920285,17.9735235,Västertorp
Västertorpsskolan,school,Skola,Störtloppsvägen,,59.2911877,17.9699829,Västertorp
Blommensbergsskolan,school,Skola,Blommensbergsvägen,114,59.3110114,18.0080915,Gröndal
,kindergarten,Skola,Blommensbergsvägen,114,59.311198,18.0081196,Gröndal
,parking,Parkering,Styrbjörnsvägen,,59.3095331,17.9995439,Aspudden
,parking,Parkering,Styrbjörnsvägen,,59.3103125,18.0026344,Aspudden
,parking,Parkering,Styrbjörnsvägen,,59.3092125,18.0011946,Aspudden
,parking,Parkering,Blommensbergsvägen,166,59.3099709,17.9990265,Aspudden
Hägerstensåsens skola,school,Skola,Sedelvägen,,59.296525,17.9813202,Hägerstensåsen
,parking,Parkering,Vinstvägen,,59.298704,17.9807456,Hägerstensåsen
,parking,Parkering,Vinstvägen,,59.2982798,17.981121,Hägerstensåsen
,parking,Parkering,Fastlagsvägen,,59.3037766,17.9959171,Midsommarkransen
,parking,Parkering,Mellanbergsvägen,,59.2943944,17.9819954,Hägerstensåsen
,parking,Parkering,Vinstvägen,,59.2983066,17.9802177,Hägerstensåsen
,parking,Parkering,Tomträttsvägen,,59.2940777,17.9835046,Hägerstensåsen
,parking,Parkering,Dymlingsgränd,,59.2908017,17.9866303,Hägerstensåsen
,parking,Parkering,Lotterivägen,,59.2970959,17.9819874,Hägerstensåsen
,parking,Parkering,Valutavägen,,59.2981766,17.9793168,Hägerstensåsen
,parking,Parkering,Folkparksvägen,,59.2831686,18.0109583,Solberga
,parking,Parkering,Barbro Alvings Gata,,59.2853195,17.9542244,Fruängen
,parking,Parkering,Ekensbergsvägen,,59.3143872,17.9913577,Gröndal
,parking,Parkering,Gröndalsvägen,,59.3152939,17.9851045,Gröndal
,parking,Parkering,Bergtallsvägen,,59.2822693,17.9692529,Älvsjö
,parking,Parkering,Bergtallsvägen,,59.2820345,17.9687968,Älvsjö
,parking,Parkering,Kavelbrovägen,,59.2819728,17.9666531,Älvsjö
,parking,Parkering,Fruängens Kyrkogata,14,59.2855486,17.9673146,Fruängen
,parking,Parkering,Kavelbrovägen,,59.2812207,17.9664785,Älvsjö
,kindergarten,Skola,Barbro Alvings Gata,,59.2850966,17.9517623,Fruängen
,parking,Parkering,Magelungsvägen,,59.2744062,18.0123027,Östberga
,parking,Parkering,Mässvägen,,59.2745509,18.0103863,Liseberg
,parking,Parkering,Blågransvägen,,59.2785061,17.9742497,Älvsjö
,parking,Parkering,Stora Kvinns Väg,,59.2779591,17.9760975,Älvsjö
,parking,Parkering,Personnevägen,90,59.2934362,17.9771689,Västertorp
,parking,Parkering,Slalomvägen,,59.2922394,17.97341,Västertorp
,parking,Parkering,Varuvägen,,59.2716446,18.0073566,Älvsjö
,parking,Parkering,Konsumentvägen,,59.2704558,18.0073943,Älvsjö
,parking,Parkering,Barbro Alvings Gata,,59.2854466,17.9534739,Fruängen
Långbro bakficka,cafe,Kafé,Stora Kvinns Väg,,59.2818034,17.9715299,Älvsjö
,parking,Parkering,Spadvägen,,59.2822311,17.9833261,Älvsjö
Snöripan,kindergarten,Skola,Snöripsvägen,,59.2728158,17.9783928,Långsjö
Snöripan,kindergarten,Skola,Snöripsvägen,,59.2728783,17.9788695,Långsjö
,parking,Parkering,Västertorpsvägen,,59.2893654,17.9534457,Mälarhöjden
,parking,Parkering,Västertorpsvägen,,59.2898364,17.9550122,Västertorp
,parking,Parkering,Karin Boyes gata,,59.2813131,17.9567498,Fruängen
,parking,Parkering,Torsten Alms Gata,,59.3093384,17.996614,Aspudden
,parking,Parkering,Barbro Alvings Gata,,59.2857334,17.9542554,Fruängen
,parking,Parkering,Stöttingsgränd,,59.2917913,17.9656624,Västertorp
,parking,Parkering,Wendela Hebbes Gata,,59.2871982,17.9514612,Fruängen
,parking,Parkering,Slalomvägen,,59.2930358,17.9731663,Västertorp
,parking,Parkering,Vasaloppsvägen,,59.2944945,17.9670732,Västertorp
,parking,Parkering,Elsa Beskows Gata,,59.2828537,17.9591879,Fruängen
,parking,Parkering,Gamla Södertäljevägen,,59.282818,17.9573749,Fruängen
Förskolan Solbacken,kindergarten,Skola,Personnevägen,78,59.298395,17.975206,Hägersten
,parking,Parkering,Elektravägen,,59.2935367,18.0090408,Västberga
,kindergarten,Skola,Trettondagsvägen,,59.2998487,17.9975383,Midsommarkransen
,parking,Parkering,Telefonvägen,,59.2991366,18.0002758,Midsommarkransen
,parking,Parkering,Nyårsvägen,,59.3028693,17.9940399,Midsommarkransen
,parking,Parkering,Nyårsvägen,,59.3025653,17.9940605,Midsommarkransen
,parking,Parkering,Nyårsvägen,,59.3026493,17.9948019,Midsommarkransen
,parking,Parkering,Linbodagränd,,59.2756636,17.9862081,Älvsjö
,parking,Parkering,Västerängsvägen,,59.2760167,17.9859253,Älvsjö
,parking,Parkering,Vantörsvägen,,59.2758985,17.9825793,Långsjö
,parking,Parkering,Johan Skyttes Väg,,59.28077,17.9776114,Älvsjö
,parking,Parkering,Doktor Widerströms Gata,,59.284186,17.9575256,Fruängen
Förskolan Hovet,school,Skola,Hojgränd,3,59.309826,18.0172868,Liljeholmen
Herrängens skola,school,Skola,Konvaljestigen,15,59.2751215,17.97312,Älvsjö
Rödkulla Förskola,kindergarten,Skola,Långängsvägen,56,59.2743449,17.9701066,Älvsjö
Mälarhöjdens skola Pärlan,school,Skola,Hägerstensvägen,,59.3011959,17.9559101,Mälarhöjden
Förskolan Hattis,kindergarten,Skola,Hattmakarbacken,11,59.2967675,17.9522865,Mälarhöjden
Slättgården Förskola,kindergarten,Skola,Slättgårdsvägen,72,59.291759,17.9508189,Mälarhöjden
Lögarbergets Montessoriskola,kindergarten,Skola,Traktörgränd,10,59.3014838,17.9473056,Mälarhöjden
Förskolan Toppen,kindergarten,Skola,Persmässgränd,16,59.2955309,17.956767,Mälarhöjden
Förskolan Kroppås,kindergarten,Skola,Sankt Mickelsgatan,122,59.2983853,17.9593949,Hägersten
Förskolan Skogsbacken,kindergarten,Skola,Selmedalsvägen,90-92,59.3050913,17.9672341,Hägersten
Johan Skytteskolan,school,Skola,Västerängsvägen,21,59.2774698,17.982741,Älvsjö
,parking,Parkering,Karusellplan,,59.297832,18.0108478,Västberga
,parking,Parkering,Dansbanevägen,,59.297123,18.0099632,Västberga
,parking,Parkering,Dansbanevägen,,59.295696,18.007421,Västberga
,parking,Parkering,Västberga Allé,3,59.2992252,18.0143699,Västberga
,parking,Parkering,Västberga Allé,,59.2984826,18.0127745,Västberga
,parking,Parkering,Terrängvägen,,59.292304,17.9643207,Västertorp
Förhyrda,parking,Parkering,Stöttingsgränd,,59.2910016,17.9642335,Västertorp
,parking,Parkering,Sparbanksvägen,,59.299637,17.9818537,Hägerstensåsen
,parking,Parkering,Mellanbergsvägen,,59.2930145,17.9843292,Hägerstensåsen
,parking,Parkering,Inteckningsvägen,,59.292906,17.9813234,Hägerstensåsen
,parking,Parkering,Riksdalervägen,,59.2980105,17.9844685,Hägerstensåsen
Årstadalsskolan,school,Skola,Sjöviksbacken,19,59.3049568,18.0314277,Liljeholmen
,parking,Parkering,Hägerstensbrinken,,59.3065156,17.9737163,Hägersten
,parking,Parkering,Torsten Alms Gata,,59.309146,17.9946073,Aspudden
,parking,Parkering,Torsten Alms Gata,,59.3090446,17.9923841,Aspudden
,parking,Parkering,Sigurd Rings Gata,,59.3097033,17.9917477,Aspudden
,parking,Parkering,Sigurd Rings Gata,,59.3097659,17.9938734,Aspudden
Hägerstenshamnens skola,school,Skola,Selmedalsringen,,59.3072705,17.9786366,Hägersten
Hägerstenshamnens skola,school,Skola,Jakobsdalsvägen,,59.3064226,17.9837704,Hägersten
,parking,Parkering,Selmedalsringen,,59.3057897,17.9809814,Hägersten
,parking,Parkering,Gösta Ekmans väg,,59.3033621,17.9808364,Hägersten
,parking,Parkering,Ivar Vidfamnes gata,,59.3078498,17.9859906,Aspudden
Flyttfågeln,school,Skola,Ivar Vidfamnes gata,,59.3078244,17.9880571,Aspudden
Stormfågeln,kindergarten,Skola,Ivar Vidfamnes gata,20,59.3081169,17.9860521,Aspudden
,parking,Parkering,Selmedalsringen,,59.3065577,17.9802307,Hägersten
,parking,Parkering,Gröndalsvägen,,59.3153647,17.98607,Gröndal
,parking,Parkering,Kontrollvägen,,59.2928843,18.0009566,Solberga
,parking,Parkering,Elektravägen,,59.2928356,18.0050664,Västberga
,parking,Parkering,Västberga Allé,,59.2913824,18.0177993,Västberga
,parking,Parkering,Västberga Allé,,59.2924371,18.0165657,Västberga
,kindergarten,Skola,Kobragränd,,59.297456,18.0026592,Västberga
,parking,Parkering,Västberga Allé,,59.2970754,18.0123402,Västberga
,parking,Parkering,Karusellvägen,,59.2973604,18.0080598,Västberga
,parking,Parkering,Karusellvägen,,59.2971587,18.0072523,Västberga
,parking,Parkering,Karusellvägen,,59.2973992,18.0077875,Västberga
Gröndalsgården,kindergarten,Skola,Lövholmsvägen,85,59.3138974,18.0073725,Gröndal
Förskolan Våga Vilja,kindergarten,Skola,Strandängsstigen,,59.2658182,17.9763777,Långsjö
Novia Engelska Skolan,school,Skola,Sjöviksbacken,24,59.3046375,18.029414,Liljeholmen
,parking,Parkering,Liljeholmsstranden,,59.3146434,18.0252509,Liljeholmen
,kindergarten,Skola,Borrvägen,,59.2942395,17.9978956,Västberga
,parking,Parkering,Valsbergs gränd,,59.3001725,18.0101129,Midsommarkransen
,parking,Parkering,Stora Kvinns Väg,,59.2786368,17.9762002,Älvsjö
,parking,Parkering,Stora Kvinns Väg,,59.2786181,17.9755597,Älvsjö
,parking,Parkering,Stora Kvinns Väg,,59.2800899,17.9740973,Älvsjö
,parking,Parkering,Vantörsvägen,,59.2772537,17.9782424,Älvsjö
,parking,Parkering,Vantörsvägen,,59.2775176,17.9772481,Älvsjö
Förskolan Älvskogen,kindergarten,Skola,Långsjövägen,,59.2729943,17.9944267,Långsjö
Ellen Fries,kindergarten,Skola,Ellen Fries Gata,,59.2872934,17.9699509,Fruängen
,parking,Parkering,Fruängens Kyrkogata,,59.2849668,17.9682336,Fruängen
,parking,Parkering,Fredrika Bremers Gata,,59.2881664,17.9727759,Fruängen
,parking,Parkering,Mickelsbergsvägen,,59.2854408,17.9758004,Fruängen
,parking,Parkering,Mickelsbergsvägen,,59.2861779,17.9776161,Fruängen
,parking,Parkering,Mickelsbergsvägen,,59.2857322,17.9767817,Fruängen
Kämpetorpsskolan,school,Skola,Kedjevägen,57,59.283786,17.9966735,Solberga
,parking,Parkering,Klackvägen,,59.2870343,18.0112022,Solberga
,parking,Parkering,Klackvägen,,59.2878582,18.0099104,Solberga
,parking,Parkering,Sulvägen,,59.2875174,18.0063571,Solberga
Förskolan Trollsländan,kindergarten,Skola,Sulvägen,22,59.2864224,18.0049322,Solberga
,parking,Parkering,Folkparksvägen,,59.2881255,18.0045761,Solberga
,parking,Parkering,Kristallvägen,,59.2905604,18.0030372,Solberga
,parking,Parkering,Kristallvägen,,59.2903451,18.0024269,Solberga
Mockasinen Solbergaskolan,school,Skola,Lerkrogsvägen,28,59.2898344,18.0060886,Västberga
,parking,Parkering,Tivolivägen,2,59.294994,18.0046419,Västberga
,parking,Parkering,Mästarbacken,,59.2995349,17.9451896,Mälarhöjden
,parking,Parkering,Mästarbacken,79,59.3000021,17.9468147,Mälarhöjden
,parking,Parkering,Nybohovsgränd,,59.3081268,18.0196129,Liljeholmen
,parking,Parkering,Nybohovsbacken,,59.3090048,18.0138493,Liljeholmen
,parking,Parkering,Vinterviksvägen,,59.3113187,18.0055276,Gröndal
Förhyrda,parking,Parkering,Stöttingsgränd,,59.2911632,17.9646182,Västertorp
,parking,Parkering,Vasaloppsvägen,,59.2922707,17.9621823,Västertorp
Förhyrda,parking,Parkering,Domargränd,,59.2926968,17.9649574,Västertorp
,parking,Parkering,Stöttingsgränd,,59.2913956,17.9643776,Västertorp
,parking,Parkering,Snöbollsgränd,,59.2916863,17.9611095,Västertorp
,parking,Parkering,Snöbollsgränd,,59.2917196,17.9605637,Västertorp
,parking,Parkering,Snöbollsgränd,,59.2914388,17.9609866,Västertorp
,parking,Parkering,Terrängvägen,,59.293607,17.9662464,Västertorp
,parking,Parkering,Västertorpsvägen,,59.2908431,17.959789,Västertorp
Snöbollens förskola,kindergarten,Skola,Snöbollsgränd,3,59.2912112,17.9616159,Västertorp
Förskolan Vasan,kindergarten,Skola,Vasaloppsvägen,110,59.2922463,17.9611186,Västertorp
,parking,Parkering,Terrängvägen,,59.2926603,17.9631454,Västertorp
,parking,Parkering,Stöttingsgränd,,59.2914486,17.9653965,Västertorp
Förskolan Isgränd,kindergarten,Skola,Isgränd,,59.2911039,17.9672238,Västertorp
,parking,Parkering,Störtloppsvägen,,59.2912279,17.9685327,Västertorp
,parking,Parkering,Isgränd,,59.29066,17.969319,Västertorp
Sjöviksskolan,school,Skola,Årsta Skolgränd,7,59.3022525,18.0300622,Liljeholmen
,parking,Parkering,Klensmedsvägen,4,59.2947769,17.9992281,Västberga
Internationella Engelska Skolan,school,Skola,Tellusborgsvägen,,59.2970933,18.0019566,Västberga
Pilgrimsskolan,school,Skola,Pilgrimsvägen,1,59.3050587,18.0062963,Aspudden
Korpen,kindergarten,Skola,Schlytersvägen,,59.3063336,18.0025201,Aspudden
Grågåsen,kindergarten,Skola,Erik Segersälls Väg,,59.3078851,17.9991414,Aspudden
,parking,Parkering,Hägerstensvägen,,59.3044582,17.9826948,Hägersten
,parking,Parkering,Hägerstensvägen,,59.3044362,17.982144,Hägersten
,parking,Parkering,Lövholmsvägen,,59.3122795,18.0241955,Liljeholmen
Förskolan Svängen,school,Skola,Sjöviksbacken,,59.3039423,18.0297711,Liljeholmen
Trekanten,kindergarten,Skola,Trekantsstranden,,59.3131841,18.0190185,Liljeholmen
Area Code 157,parking,Parkering,Lövholmsvägen,,59.3142202,18.0172062,Liljeholmen
Entréskolan,school,Skola,Lövholmsvägen,61,59.3130096,18.0126241,Liljeholmen
Karlavagnen,kindergarten,Skola,Ljusstöparbacken,2,59.3142002,18.0124814,Gröndal
Sjöbjörnen,kindergarten,Skola,Sjöbjörnsvägen,76,59.3179494,18.0057861,Gröndal
,parking,Parkering,Bryggvägen,,59.3162015,17.9987141,Gröndal
Viken,kindergarten,Skola,Gröndalsvägen,146,59.314508,17.9945098,Gröndal
Udden,kindergarten,Skola,Gröndalsvägen,173,59.3147439,17.9851636,Gröndal
,parking,Parkering,Ekensbergsvägen,,59.3150538,17.9919415,Gröndal
,parking,Parkering,Gröndalsvägen,,59.3153637,18.002069,Gröndal
,parking,Parkering,Gröndalsvägen,,59.3152401,18.0035295,Gröndal
,parking,Parkering,Fredrika Bremers Gata,,59.2869948,17.9731288,Fruängen
,parking,Parkering,Elsa Brändströms Gata,,59.2883054,17.9739786,Fruängen
,parking,Parkering,Elektravägen,,59.2960433,18.0125481,Västberga
,parking,Parkering,Västberga Allé,,59.2966588,18.0123517,Västberga
,parking,Parkering,Årstaskogs Väg,,59.3025042,18.0336165,Liljeholmen
,parking,Parkering,Tellusgatan,,59.2983046,17.9909776,Midsommarkransen
,parking,Parkering,Elektravägen,,59.296362,18.0159493,Västberga
,parking,Parkering,Apelsinstigen,,59.2830175,18.0154619,Solberga
,parking,Parkering,Toffelbacken,,59.2844721,18.0182498,Solberga
,parking,Parkering,Sandalmakarbacken,,59.2832182,18.01328,Solberga
,parking,Parkering,Mästarbacken,,59.2983071,17.9434663,Mälarhöjden
,parking,Parkering,Lina Sandells Plan,,59.2840614,17.9604256,Fruängen
,parking,Parkering,Lina Sandells Plan,,59.2841458,17.9607729,Fruängen
,parking,Parkering,Västertorpsvägen,,59.2900673,17.9538791,Mälarhöjden
Förskolan Solkatten,kindergarten,Skola,Älvsjövägen,62,59.2832517,17.9989748,Solberga
,parking,Parkering,Årstaängsvägen,,59.3096268,18.0277085,Liljeholmen
,parking,Parkering,Upplagsvägen,,59.3009887,18.0253675,Västberga
,parking,Parkering,Södertäljevägen,,59.3066521,18.0241314,Liljeholmen
,parking,Parkering,Årsta Skolgränd,,59.3016249,18.0303662,Liljeholmen
Midsommarköket,cafe,Kafé,Tellusborgsvägen,,59.3008355,18.004508,Midsommarkransen
,parking,Parkering,Västberga gårdsväg,,59.2914713,18.0157933,Västberga
,parking,Parkering,Västberga gårdsväg,,59.2914129,18.0147255,Västberga
,parking,Parkering,Näbbskostigen,,59.2888475,18.0102112,Västberga
,parking,Parkering,Personnevägen,,59.2941036,17.9771953,Västertorp
,parking,Parkering,Klubbacken,,59.3045365,17.9603661,Hägersten
,parking,Parkering,Klubbacken,,59.3048121,17.9612841,Hägersten
,parking,Parkering,Klubbacken,,59.3050757,17.9621317,Hägersten
,parking,Parkering,Varuvägen,9B,59.2716847,18.0074174,Älvsjö
,parking,Parkering,Tellusborgsvägen,,59.2999015,18.0043181,Midsommarkransen
,parking,Parkering,Midsommarvägen,,59.2998346,18.0044571,Midsommarkransen
,parking,Parkering,Vattenledningsvägen,,59.2999765,18.0045456,Midsommarkransen
,parking,Parkering,Västbergavägen,,59.2915259,18.0092665,Västberga
,parking,Parkering,Kristallvägen,168,59.2898992,18.0024977,Solberga
Förskolan Höjden,school,Skola,Sturehillsvägen,29,59.3041137,18.0319562,Liljeholmen
,parking,Parkering,Midsommarvägen,,59.3010838,18.0114794,Midsommarkransen
,parking,Parkering,Dialoggatan,8,59.2992291,17.9917145,Midsommarkransen
,parking,Parkering,Västberga gårdsväg,,59.2920248,18.0152606,Västberga
,parking,Parkering,Backvindeln,,59.2969868,17.9452225,Mälarhöjden
,parking,Parkering,Backvindeln,,59.2972272,17.9456896,Mälarhöjden
,parking,Parkering,Fastlagsvägen,,59.302888,17.9919448,Midsommarkransen
,parking,Parkering,Skridskovägen,,59.2925213,17.9754557,Västertorp
,parking,Parkering,Stora Kvinns Väg,,59.2796453,17.9735832,Älvsjö
,parking,Parkering,Inteckningsvägen,,59.2918516,17.9845782,Hägerstensåsen
,parking,Parkering,Inteckningsvägen,,59.2919127,17.9840651,Hägerstensåsen
,parking,Parkering,Älvsjövägen,,59.2878073,17.9818754,Långbro
,parking,Parkering,Ada Nilssons gata,,59.2833534,17.9556208,Fruängen
,parking,Parkering,Bredängskopplet,,59.289376,17.9479327,Mälarhöjden
,parking,Parkering,Västertorpsvägen,,59.2901012,17.9540921,Mälarhöjden
Midsommarkransens skola,school,Skola,Bäckvägen,,59.3030059,18.0050687,Midsommarkransen
Förskolan Sturehill,school,Skola,Sturehillsvägen,,59.3033454,18.0320068,Liljeholmen
,parking,Parkering,Sjöviksbacken,19,59.3044583,18.0309464,Liljeholmen
P-hus Älvsjöstaden,parking,Parkering,Älvsjövägen,,59.2802014,18.0018462,Älvsjö
Kastanjen förskola,kindergarten,Skola,Tellusborgsvägen,,59.3036764,18.0095273,Midsommarkransen
,parking,Parkering,Södertäljevägen,,59.289521,17.9562322,Fruängen
,parking,Parkering,Gösta Ekmans väg,,59.3032194,17.9844007,Hägersten
,parking,Parkering,Gösta Ekmans väg,,59.3029653,17.982994,Hägersten
Pysslingen,kindergarten,Skola,Gösta Ekmans väg,,59.3036096,17.9813325,Hägersten
,parking,Parkering,Västertorpsvägen,,59.2902555,17.9660499,Västertorp
,parking,Parkering,Västerängsvägen,,59.2795991,17.9792259,Älvsjö
,parking,Parkering,Lövholmsvägen,,59.3124281,18.0226947,Liljeholmen
,parking,Parkering,Mejerivägen,,59.3141204,18.0262901,Liljeholmen
,parking,Parkering,Sulvägen,,59.2870739,18.0057141,Solberga
,parking,Parkering,Sulvägen,,59.2867588,18.0052644,Solberga
,parking,Parkering,Sulvägen,,59.2869443,18.0057201,Solberga
,parking,Parkering,Stövelvägen,,59.2867759,18.0076053,Solberga
,parking,Parkering,Folkparksvägen,,59.2879948,18.0077006,Solberga
,parking,Parkering,Folkparksvägen,,59.2878254,18.0081281,Solberga
,parking,Parkering,Klackvägen,,59.2871133,18.0096167,Solberga
,parking,Parkering,Folkparksvägen,,59.2864021,18.0085562,Solberga
,parking,Parkering,Folkparksvägen,,59.2862698,18.0089513,Solberga
,parking,Parkering,Folkparksvägen,,59.286305,18.0096322,Solberga
,parking,Parkering,Klackvägen,,59.2866028,18.0117681,Solberga
,parking,Parkering,Pliggvägen,,59.2863516,18.0126099,Solberga
,parking,Parkering,Klackvägen,,59.2870595,18.0117855,Solberga
,parking,Parkering,Pliggvägen,,59.2856695,18.0112172,Solberga
,parking,Parkering,Pliggvägen,,59.2858904,18.0114922,Solberga
,parking,Parkering,Pliggvägen,,59.2858124,18.0111916,Solberga
,parking,Parkering,Rubinvägen,,59.2889026,17.9990732,Solberga
,parking,Parkering,Rubinvägen,,59.2893602,17.9981016,Solberga
Rubinen Garage,parking,Parkering,Kristallvägen,,59.2889612,17.9979042,Solberga
,parking,Parkering,Kristallvägen,,59.2909913,17.9981577,Solberga
,parking,Parkering,Kristallvägen,,59.2904747,17.9986977,Solberga
,parking,Parkering,Kristallvägen,,59.2906495,17.9985503,Solberga
,parking,Parkering,Kristalltorget,,59.2898551,17.9985571,Solberga
,parking,Parkering,Kristallvägen,,59.2900857,17.9983059,Solberga
,parking,Parkering,Safirgränd,,59.2922104,18.0021499,Solberga
,parking,Parkering,Safirgränd,,59.2915877,18.0025712,Solberga
,parking,Parkering,Safirgränd,,59.2914611,18.0024509,Solberga
,parking,Parkering,Safirgränd,,59.2916963,18.0019111,Solberga
,parking,Parkering,Safirgränd,,59.2917239,18.000158,Solberga
,parking,Parkering,Sulvägen,,59.2870829,18.0053958,Solberga
Internationella Engelska Skolan,school,Skola,Herbariegränd,,59.3032611,18.0171082,Liljeholmen
Svanens förskola,kindergarten,Skola,Metronomgatan,,59.2979308,18.0012397,Västberga
Tellusborgsskolan,school,Skola,Tellusborgsvägen,34,59.3044441,18.0086196,Midsommarkransen
Förskolan Luren,kindergarten,Skola,Pingstvägen,,59.3016483,17.9955209,Midsommarkransen
,parking,Parkering,Höstgatan,,59.3022605,18.0032886,Midsommarkransen
Förskolan Kobran,kindergarten,Skola,Mobilgatan,,59.297933,17.9884507,Midsommarkransen
Vittra Telefonplan,school,Skola,Snickerigatan,,59.2995152,17.9901817,Midsommarkransen
Förskolan Grindslanten,kindergarten,Skola,Förskottsvägen,,59.2982025,17.9855962,Hägerstensåsen
,parking,Parkering,Hypoteksvägen,,59.2957094,17.985302,Hägerstensåsen
Pysslingen Förskolor Isälven,kindergarten,Skola,Kamrerarvägen,,59.2943429,17.9857158,Hägerstensåsen
,parking,Parkering,Sparbanksvägen,,59.2937647,17.9843778,Hägerstensåsen
,parking,Parkering,Förskottsvägen,,59.2985378,17.9832034,Hägerstensåsen
,parking,Parkering,Hägerstensvägen,,59.3015638,17.9570223,Hägersten
,parking,Parkering,Piruettvägen,,59.2948512,17.9781307,Hägerstensåsen
,parking,Parkering,Piruettvägen,,59.2940903,17.9789275,Hägerstensåsen
,parking,Parkering,Piruettvägen,,59.2944402,17.9787046,Hägerstensåsen
,parking,Parkering,Piruettvägen,,59.2940652,17.9784563,Hägerstensåsen
,parking,Parkering,Älvsjö Broväg,,59.2764875,18.0140116,Liseberg
Förskolorna Upptäckarna,kindergarten,Skola,Västerängsvägen,,59.2805221,17.9789977,Älvsjö
Metapontum,school,Skola,Stora Mans väg,,59.2807876,17.9757235,Älvsjö
,parking,Parkering,Rubinvägen,,59.2893986,17.9984975,Solberga
,parking,Parkering,Rubinvägen,,59.2892913,17.9986643,Solberga
,parking,Parkering,Rubinvägen,,59.289115,17.99886,Solberga
,parking,Parkering,Rubinvägen,,59.2886755,17.9986272,Solberga
,parking,Parkering,Rubinvägen,,59.2893554,17.9972888,Solberga
,parking,Parkering,Midsommarvägen,,59.3010736,18.011193,Midsommarkransen
,parking,Parkering,Sjöviksbacken,26,59.3046359,18.0293991,Liljeholmen
Aspuddens skola,school,Skola,Blommensbergsvägen,166,59.3093087,17.9978738,Aspudden
,parking,Parkering,Marieviksgatan,,59.3097501,18.0294635,Liljeholmen
,parking,Parkering,Liljeholmstorget,,59.309716,18.0237907,Liljeholmen
