namn,kategori,gata,lat,lon,stadsdel
"Abrahamsbergsskolan, F–9",grundskolor,Gustav III:s väg 2–10,59.3346293,17.9505675,Abrahamsberg
"Adolfsbergsskolan, F–6",grundskolor,Gårdsfogdevägen 18B,59.3577739,17.9536076,Mariehäll
"Alviksskolan, F–9",grundskolor,Tranebergsvägen 79,59.3351703,17.9759899,Traneberg
"Apolloniosskolan, F–9",grundskolor,Stora Mans väg 11B,59.2824177,17.9731195,Älvsjö
"Aspuddens skola, F–9",grundskolor,Blommensbergsvägen 166,59.3093396,17.9980291,Aspudden
"Beckombergaskolan, F–6",grundskolor,Styresman Sanders väg 14,59.3596442,17.9041467,Eneby
"Blackebergsskolan, F–6",grundskolor,Björnsonsgatan 132,59.3478194,17.8800464,Blackeberg
"Bromma Enskilda skola, F–6",grundskolor,Mossvägen 7,59.3298378,17.9643291,Stora mossen
"Bromma kyrkskola, F–2",grundskolor,Terserusvägen 1,59.355318,17.9201351,Bromma kyrka
"Fruängens skola, F–9",grundskolor,Fruängsgatan 57–61,59.2849719,17.9661492,Fruängen
"Grundskolan Metapontum, F–9",grundskolor,Stora Mans väg 11C,59.2824177,17.9731195,Älvsjö
"Herrängens skola, F–6",grundskolor,Konvaljestigen 15,59.2751171,17.9730779,Älvsjö
"Hägerstenshamnens skola, F–6",grundskolor,Selmedalsringen 5,59.3064939,17.9812918,Hägersten
"Hägerstensåsens skola, F–6",grundskolor,Sedelvägen 30,59.2962582,17.9819113,Hägerstensåsen
"Höglandsskolan, F–9",grundskolor,Skaldevägen 4,59.326544,17.9385602,Bromma
"Innovitaskolan Joriel, F–9",grundskolor,Bergtallsvägen 12,59.2817936,17.9695367,Älvsjö
"Internationella engelska skolan Bromma, 4–9",grundskolor,Riksbyvägen 40–48,59.3422073,17.9437126,Bromma
"Internationella engelska skolan Liljeholmen, F–9",grundskolor,Herbariegränd 3,59.3043742,18.0170452,Liljeholmen
"Internationella engelska skolan Älvsjö, 4–9",grundskolor,Armborstvägen 1,59.2808421,18.0057558,Älvsjö
"Johan Skytteskolan, F–9",grundskolor,Västerängsvägen 21,59.277314,17.9829224,Älvsjö
"Kristofferskolan, F–9",grundskolor,Marklandsbacken 11,59.3359775,17.9387975,Åkeslund
"Kunskapsskolan Fruängen, 6–9",grundskolor,Ellen Keys gata 2,59.2882679,17.9654466,Fruängen
"Kunskapsskolans resursskola Hägersten, 7–9",grundskolor,Riksdalervägen 5,59.2973388,17.9842989,Hägerstensåsen
"Kämpetorpsskolan, F–9",grundskolor,Kedjevägen 57B,59.2869044,17.9923609,Solberga
"Lunaskolan Bromma, 4–9",grundskolor,Johannesfredsvägen 43,59.3469559,17.9731332,Ulvsunda industriområde
"Långbrodalsskolan, F–6",grundskolor,Sländvägen 3,59.2814279,17.9813112,Älvsjö
"Magelungens grundskola Långbropark, 1–6",grundskolor,Solberga hagväg 4,59.2803534,18.0090102,Älvsjö
"Magelungens grundskola Älvsjö, 7–9",grundskolor,Solberga Hagväg 1,59.2798171,18.0093465,Älvsjö
"Mariehällsskolan, F–6",grundskolor,Tappvägen 23,59.3632135,17.9495845,Mariehäll
"Midsommarkransens skola, F–9",grundskolor,Bäckvägen 1,59.3023898,17.9948889,Midsommarkransen
Montessori Mondial Mälarhöjden,grundskolor,Traktörgränd 10,59.3014955,17.9472779,Mälarhöjden
"Mälarhöjdens skola, F–9",grundskolor,Lugntorpsvägen 2,59.2975268,17.9566888,Mälarhöjden
"Nockebyhovsskolan, F–3",grundskolor,Tyska Bottens väg 68,59.3335125,17.9065161,Nockebyhov
"Norra Ängby skola, F–6",grundskolor,Vultejusvägen 20,59.3489677,17.9092484,Norra Ängby
"Nya Elementar, F–9",grundskolor,Bergslagsvägen 80,59.3445421,17.9010568,Södra Ängby
"Olovslundsskolan, F–6",grundskolor,Olovslundsvägen 23,59.3311661,17.9384342,Olovslund
"Pilgrimsskolan, F–3",grundskolor,Pilgrimsvägen 1,59.3052052,18.0063419,Aspudden
"Raoul Wallenbergskolan, F–9",grundskolor,Beckombergavägen 316,59.356212,17.9027052,Eneby
"Sjöängsskolan, F–9",grundskolor,Gripsholmsvägen 29,59.2815743,18.0287637,Örby slott
"Smedslättsskolan, F–6",grundskolor,Drömstigen 32,59.323855,17.967136,Smedslätten
"Snitz grundskola, 7–9",grundskolor,Snickerigatan 4,59.2995333,17.9914611,Midsommarkransen
"Solbergaskolan, F–6",grundskolor,Lerkrogsvägen 28,59.2902259,18.0060931,Västberga
"Stefanskolan, F–9",grundskolor,Tegnebyvägen 30,59.3433235,17.9084713,Norra Ängby
"Stockholm International Academy Hägersten, F–9",grundskolor,Sulvägen 52,59.2842816,18.00775,Solberga
"Södra Ängby skola, F–9",grundskolor,Blackebergsvägen 100,59.3373376,17.8974141,Södra Ängby
"Tellusborgsskolan, 6–9",grundskolor,Tellusborgsvägen 36,59.3020595,18.0055479,Midsommarkransen
"Thea privata grundskola – Bromma, 6–9",grundskolor,Voltavägen 8,59.3456792,17.9696103,Ulvsunda industriområde
"Ulvsundaskolan, F–3",grundskolor,Johannesfredsvägen 45,59.3469559,17.9731332,Ulvsunda industriområde
"Vittra Telefonplan, F–9",grundskolor,Snickerigatan 3–4,59.2994897,17.9910968,Midsommarkransen
"Västbergaskolan, F–9",grundskolor,Klensmedsvägen 2,59.2958759,17.9950632,Västberga
"Västertorpsskolan, F–6",grundskolor,Störtloppsvägen 2–6,59.2927971,17.9678296,Västertorp
"Ålstensskolan, F–6",grundskolor,Nyängsvägen 72–80,59.3256376,17.955415,Ålsten
"Äppelviksskolan, 7–9",grundskolor,Alviksvägen 97,59.3239043,17.9746664,Äppelviken
"Örbyskolan, F–9",grundskolor,Gamla Huddingevägen 425,59.2748688,18.0265722,Älvsjö
"Östbergaskolan, F–6",grundskolor,Östbergabackarna 51–57,59.2885634,18.0383425,Östberga
"Aspuddens skola, anpassad grundskola 1–9",anpassade_grundskolor,Blommensbergsvägen 166,59.3093396,17.9980291,Aspudden
"Beckombergaskolan, anpassad grundskola F–6",anpassade_grundskolor,Styresman Sanders väg 14,59.3596442,17.9041467,Eneby
"Fruängens skola, anpassad grundskola 1–9",anpassade_grundskolor,Fruängsgatan 57–61,59.2849719,17.9661492,Fruängen
"Innovitaskolan Joriel grundskola och anpassad grundskola, F–9",anpassade_grundskolor,Bergtallsvägen 12,59.2817936,17.9695367,Älvsjö
"Lunaskolan Bromma, anpassad grundskola 4–9",anpassade_grundskolor,Johannesfredsvägen 43,59.3469559,17.9731332,Ulvsunda industriområde
"Midsommarkransens skola, anpassad grundskola 1–7",anpassade_grundskolor,Bäckvägen 1,59.3023898,17.9948889,Midsommarkransen
"Nya Elementar, anpassad grundskola 1–9",anpassade_grundskolor,Bergslagsvägen 80,59.3445421,17.9010568,Södra Ängby
"Olovslundsskolan, anpassad grundskola 1–6",anpassade_grundskolor,Olovslundsvägen 23,59.3311661,17.9384342,Olovslund
"Solbergaskolan, anpassad grundskola, Broskolan, 1–6",anpassade_grundskolor,Lerkrogsvägen 28,59.2902259,18.0060931,Västberga
"Solbergaskolan, anpassad grundskola, Mockasinen, 1–9",anpassade_grundskolor,Lerkrogsvägen 28,59.2902259,18.0060931,Västberga
"Västbergaskolan, anpassad grundskola, 1–9",anpassade_grundskolor,Klensmedsvägen 2,59.2958759,17.9950632,Västberga
"Västertorpsskolan, anpassad grundskola 1–6",anpassade_grundskolor,Störtloppsvägen 2,59.2911596,17.9698323,Västertorp
Öppna förskolan Fruängen,öppen_förskola,Hanna Rydhs gata 5,59.2859588,17.9738024,Fruängen
Öppna förskolan Hägerstensåsen,öppen_förskola,Inteckningsvägen 17 E,59.2924289,17.9834525,Hägerstensåsen
Öppna förskolan i Blackeberg,öppen_förskola,Grundtvigsgatan 29 (21) (mittemot Blackebergsparken),6581110.0,143549.0,
Öppna förskolan Pippi för barn med funktionsnedsättning,öppen_förskola,Hanna Rydhs gata 5,59.2859588,17.9738024,Fruängen
Öppna förskolan Tunnlandsvägen,öppen_förskola,Tunnlandsvägen 30 B,59.3363663,17.9404689,Bromma
Öppna förskolan Älvsjö,öppen_förskola,Solberga ängsväg 4,59.2812742,18.0136606,Älvsjö
"Öppna förskolan Östberga, Östberga kulturhus",öppen_förskola,Östbergatorget 14,59.2889218,18.0332425,Östberga
Andante förskolor Utflyktsvägen,förskola,Utflyktsvägen 4,59.3302726,17.9115719,Nockebyhov
Annedals Montessoriförskola,förskola,Pippi Långstrumps gata 35,59.3655816,17.9469495,Mariehäll
Bellmanskällans Montessoriförskola,förskola,Brådstupsvägen 5–9,59.3044665,17.9585439,Hägersten
Birkamyntet – Ängbybarnens förskolor,förskola,Vultejusvägen 59,59.3440481,17.9090027,Norra Ängby
Björntjänst,förskola,Bäckbornas väg 17,59.3626829,17.9011908,Eneby
Blackebergs Montessoriförskola,förskola,Holbergsgatan 109,59.3446405,17.8848678,Blackeberg
Blomstermåla – Ängbybarnens förskolor,förskola,Frislandsvägen 1–3,59.3470737,17.8984523,Södra Ängby
Blå Grodan,förskola,Missionsvägen 14,59.3408876,17.9764308,Ulvsunda
Bromma enskilda skolas förskola,förskola,Mossvägen 7,59.3298378,17.9643291,Stora mossen
Bromma språkförskola,förskola,Marklandsbacken 2,59.3368174,17.9368963,Åkeslund
Brommakrokodilens Montessoriförskola,förskola,Grönviksvägen 107,59.320387,17.9372579,Ålsten
Bullerbyn Johan Skyttes väg 325–327,förskola,Johan Skyttes väg 325-327,59.2809421,17.9816226,Älvsjö
Citrusgården,förskola,Folkparksvägen 161,59.2851239,18.012481,Solberga
Ekbacken Svartlösavägen 128,förskola,Svartlösavägen 128,59.2774449,17.9803431,Älvsjö
Eken Sulvägen 52 A,förskola,Sulvägen 52 A,59.2872902,18.0058888,Solberga
Ellen Fries,förskola,Ellen Fries gata 10,59.287995,17.9703718,Fruängen
Ellen Key,förskola,Ellen Keys Gata 83,59.2854065,17.966073,Fruängen
Fantasia,förskola,Vantörsvägen 225,59.2830064,17.9598385,Fruängen
Fiberpennan,förskola,Fastlagsvägen 68,59.3035402,17.9968277,Midsommarkransen
Flyttfågeln,förskola,Stenkilsgatan 7,59.3078217,17.9883258,Aspudden
Fyra Elementen Djurkloun,förskola,Djurklouvägen 4,59.3176179,17.9658487,Smedslätten
Fyra Elementen Grävlingen,förskola,Grävlingsvägen 11,59.3315973,17.9712138,Äppelviken
Förskolan Ankarstocksvägen 12–14,förskola,Ankarstocksvägen 12–14,59.3668088,17.9294167,Bällsta
Förskolan Beckombergavägen 76,förskola,Beckombergavägen 76,59.3457881,17.9165023,Bromma
Förskolan Bergviksvägen 89A,förskola,Bergviksvägen 89A,59.3226656,17.9573867,Ålsten
Förskolan Bild & Tanke,förskola,Hägerstensvägen 301,59.3005085,17.9609613,Hägersten
Förskolan Björnsonsgatan 4,förskola,Björnsonsgatan 4,59.3462115,17.8780185,Blackeberg
Förskolan Bällstaågatan 62,förskola,Bällstaågatan 62,59.3638101,17.9545589,Mariehäll
Förskolan Bävervägen 43,förskola,Bävervägen 43,59.3340283,17.9536389,Abrahamsberg
Förskolan Dartanjangs gata 3,förskola,Dartanjangs gata 3,59.3620536,17.9449557,Mariehäll
Förskolan Djupdalsvägen 72–74,förskola,Djupdalsvägen 72–74,59.3303634,17.9370222,Olovslund
Förskolan Drottningholmsvägen 510A,förskola,Drottningholmsvägen 510A,59.3355424,17.9265852,Åkeshov
Förskolan Författarvägen 29–31,förskola,Författarvägen 29-31,59.3255683,17.9339353,Höglandet
Förskolan Gliavägen 128,förskola,Gliavägen 128,59.3523384,17.9290909,Bromma kyrka
Förskolan Gliavägen 130,förskola,Gliavägen 130 B,59.3523384,17.9290909,Bromma kyrka
Förskolan Grindslanten,förskola,Förskottsvägen 20,59.2982032,17.9855229,Hägerstensåsen
Förskolan Gubbkärrsvägen 29,förskola,Gubbkärrsvägen 29,59.3315458,17.9142267,Nockebyhov
Förskolan Guldklimpar Lilla Äppelbo,förskola,Runda vägen 24A,59.3303711,17.9802691,Alvik
Förskolan Guldklimpar Äppelbo,förskola,Runda vägen 50,59.3319757,17.9784488,Alvik
Förskolan Gustav III:s väg 36,förskola,Gustav III:s väg 36,59.3338755,17.9462717,Abrahamsberg
Förskolan Hagelstavägen 24,förskola,Hagelstavägen 24,59.360717,17.9479909,Mariehäll
Förskolan Höjden,förskola,Kinnaredsgränd 69,59.2897487,18.030944,Östberga
Förskolan Johannesfredsvägen 27,förskola,Johannesfredsvägen 27,59.3469559,17.9731332,Ulvsunda industriområde
Förskolan Karen Blixens gata 15,förskola,Karen Blixens gata 15,59.3461936,17.8733615,Blackeberg
Förskolan Kattresan,förskola,Zornvägen 43–47,59.3421619,17.8929598,Södra Ängby
Förskolan Klintbacken 11,förskola,Klintbacken 11,59.3599018,17.9542252,Mariehäll
Förskolan Margretelundsvägen 73,förskola,Margretelundsvägen 73,59.3397511,17.9772262,Traneberg
Förskolan Marklandsbacken 2,förskola,Marklandsbacken 2,59.3368174,17.9368963,Åkeslund
Förskolan Masugnsvägen 72–74,förskola,Masugnsvägen  72–74,59.3571965,17.9622088,Ulvsunda industriområde
Förskolan Metapontum,förskola,Stora Mans Väg 11D,59.2824177,17.9731195,Älvsjö
"Förskolan Nockeby kyrkväg 8, Svanhildsvägen 23",förskola,"Nockeby kyrkväg 8, Svanhildsvägen 23",6579397.0,145792.0,
Förskolan Nockebyvägen 20,förskola,Nockebyvägen 20,59.3226627,17.9414025,Höglandet
Förskolan Nyängsvägen 21,förskola,Nyängsvägen 21,59.3247797,17.9687294,Äppelviken
Förskolan Nyängsvägen 66,förskola,Nyängsvägen 66,59.3251433,17.9599447,Ålsten
Förskolan Olovslundsvägen 19,förskola,Olovslundsvägen 19,59.3311661,17.9384342,Olovslund
Förskolan Osmundsvägen 6,förskola,Osmundsvägen 6,59.3473643,17.9741872,Ulvsunda industriområde
Förskolan Pippi Långstrumps gata 12,förskola,Pippi Långstrumps gata 12,59.3628488,17.9471455,Mariehäll
Förskolan Pippi Långstrumps gata 14,förskola,Pippi Långstrumps gata 14,59.3632791,17.9467454,Mariehäll
Förskolan Raketen,förskola,Björnsonsgatan 313,59.3495177,17.8819116,Blackeberg
Förskolan Ringarstigen 2,förskola,Ringarstigen 2,59.355328,17.9241503,Bromma kyrka
Förskolan Råbyvägen,förskola,Råbyvägen 34,59.2761013,18.0220258,Älvsjö
Förskolan Smedslättsvägen 71,förskola,Smedslättsvägen 71,59.3230505,17.961015,Smedslätten
Förskolan Stormfågeln AB,förskola,Ivar Vidfamnes Gata 20,59.3079937,17.9863286,Aspudden
Förskolan Styresman Sanders väg 16,förskola,Styresman Sanders väg 16,59.3596442,17.9041467,Eneby
Förskolan Sunnanstigen 11,förskola,Sunnanstigen 11,59.3372067,17.955714,Ulvsunda
Förskolan Svartviksslingan 47,förskola,Svartviksslingan 47,59.3398854,17.9897242,Traneberg
Förskolan Svartviksslingan 53,förskola,Svartviksslingan 53,59.3390094,17.9910381,Traneberg
Förskolan Tunnlandsvägen 30,förskola,Tunnlandsvägen 30,59.3368431,17.9392984,Bromma
Förskolan Tyska Bottens väg 49,förskola,Tyska Bottens väg 49,59.3325127,17.9056986,Nockebyhov
"Förskolan Ulvsunda Slottsväg 19, 22",förskola,Ulvsunda slottsväg 19 och 22,6580131.0,148224.0,
Förskolan Vadmalsvägen 5–7,förskola,Vadmalsvägen 5–7,59.3396561,17.9437146,Bromma
Förskolan Vingåkersvägen,förskola,Vingåkersvägen 22–26,59.2752339,18.0302443,Älvsjö
Förskolan Vinjegatan 31–33/Björnsonsgatan 132,förskola,Björnsonsgatan 132,59.3478194,17.8800464,Blackeberg
Förskolan Vultejusvägen 15 A,förskola,Vultejusvägen 15 A,59.3448874,17.9087707,Norra Ängby
Förskolan Vultejusvägen 15 D E,förskola,Vultejusvägen 15 D E,59.3489677,17.9092484,Norra Ängby
Förskolan Zornvägen 26,förskola,Zornvägen 26,59.3421619,17.8929598,Södra Ängby
Förskolan Änglan AB,förskola,Våxtorpsgränd 18,59.2881125,18.0328437,Östberga
Förskolan Äppelvikstorget,förskola,Nyängsvägen 1,59.3264122,17.9729254,Äppelviken
Förskolan Örnbacken,förskola,Örnbacken 34,59.3092546,17.9880423,Aspudden
Föräldrakooperativet Minnemalen,förskola,Svartviksslingan 13,59.3400425,17.9895629,Traneberg
Föräldrakooperativet Storken,förskola,Sunnanstigen 5,59.3375712,17.9548919,Ulvsunda
Föräldrakooperativet Trumslagaren,förskola,Trumslagargatan 10,59.2767902,17.99807,Långsjö
Föräldrakooperativet Vildkatten,förskola,Tegelbruksvägen 31,59.3019572,18.0100183,Midsommarkransen
Gläntan Lotterivägen 17,förskola,Lotterivägen 17,59.2978629,17.9808163,Hägerstensåsen
Gläntan Östbergabackarna 50,förskola,Östbergabackarna 50,59.2875969,18.0310008,Östberga
Grodan,förskola,Störtloppsvägen 36,59.2945031,17.9665397,Västertorp
Grågåsen,förskola,Erik Segersälls väg 24–30,59.3075649,17.9993105,Aspudden
Gökboet – Ängbybarnens förskolor,förskola,Dybecksvägen 84,59.3464247,17.9008879,Norra Ängby
Hasselbacken,förskola,Personnevägen 78,59.2983006,17.9751492,Hägersten
Hattis,förskola,Hattmakarbacken 11,59.296746,17.9523297,Mälarhöjden
Hattstugans Waldorfförskola,förskola,Stora Mossens backe 4,59.3345153,17.9642261,Stora mossen
Hoppetossa Tolvan,förskola,Grönviksvägen 111,59.320387,17.9372579,Ålsten
I Ur och Skur Havskatten,förskola,Missionsvägen 14,59.3408876,17.9764308,Ulvsunda
I Ur och Skur Mullelyan,förskola,Beckombergavägen 13,59.3431821,17.921362,Åkeshov
I Ur och Skur Trollsländan,förskola,Tappvägen 32,59.3645169,17.9524702,Mariehäll
I Ur och Skur Täppan,förskola,Grundtvigsgatan 47–49,59.3469133,17.8853255,Blackeberg
I Ur och Skur Vindleken,förskola,Långsjövägen 12,59.2747059,17.9977428,Långsjö
I Ur och Skur Vinterelvan,förskola,Örnbacken 4,59.3095658,17.9905404,Aspudden
I Ur och Skur Västanvind,förskola,Anundsvägen 12,59.3520842,17.8911026,Beckomberga
Instrumentet,förskola,Instrumentvägen 32,59.3055671,17.9845951,Hägersten
Jungfru Lona,förskola,Kinmanssonsvägen 47,59.3019509,17.9690178,Hägersten
Justineborgs förskola,förskola,Adolfsbergsvägen 26,59.358668,17.9556266,Mariehäll
Kastanjen Majstångsvägen 6,förskola,Majstångsvägen 6,59.3033057,18.0090156,Midsommarkransen
Kata Dalström,förskola,Kata Dalströms gata 23,59.2851332,17.9603854,Fruängen
Kobran,förskola,Mobilgatan 3B,59.2978941,17.9890975,Midsommarkransen
Korpen,förskola,Schlytersvägen 55,59.3064018,18.006897,Aspudden
Kristallen,förskola,Isgränd 6,59.2908257,17.9681302,Västertorp
Kroppås,förskola,Sankt Mickelsgatan 122,59.2983479,17.9593892,Hägersten
Lillgårdens waldorfförskola,förskola,Broderivägen 13,59.3390824,17.9294811,Åkeshov
Lillskogen,förskola,Karlslundsvägen 10,59.2687269,17.9816651,Långsjö
LM-gården,förskola,Trettondagsvägen 7–9,59.2999201,17.9980105,Midsommarkransen
Luren,förskola,Kransbindarvägen 120,59.3023329,17.9982216,Midsommarkransen
Långbropark förskola,förskola,Stora mans väg 11B,59.2824177,17.9731195,Älvsjö
Långsjö,förskola,Gårdstigen 19,59.2661284,17.9744804,Långsjö
Majamyra,förskola,Torsslowsbacken 2,59.3066089,17.9760782,Hägersten
Mariehälls Montessoriförskola,förskola,Hagelstavägen 20,59.3597655,17.9479265,Mariehäll
Matrisen,förskola,Långsjövägen 14,59.2742858,17.9968241,Långsjö
Metronomen,förskola,Radiusbacken 31,59.2981625,18.0041428,Västberga
Mineralen,förskola,Skodonsvägen 9,59.2889789,18.0067707,Solberga
Minne Mus Montessoriförskola,förskola,Svartviksslingan 88,59.3399391,17.987515,Traneberg
Montessoriförskolan Bromma Planeten,förskola,Söderberga allé 28,59.359664,17.8964789,Beckomberga
Montessoriförskolan Liten och Stor,förskola,Stopvägen 37,59.3353261,17.9460517,Bromma
Montessoriförskolan Regnbågen,förskola,Krattvägen 20,59.2850042,17.9872618,Älvsjö
Muminstugan,förskola,Vantörsvägen 150,59.2732489,17.9899538,Älvsjö
Möjbro – Ängbybarnens förskolor,förskola,Möjbrovägen 8,59.3445878,17.9248178,Bromma
Norlandia förskolor Måsen,förskola,Blommensbergsvägen 163 och 180,6576741.0,149621.0,
Norlandia förskolor Sagohjälten,förskola,Annedalsvägen 39,59.3646939,17.9498785,Mariehäll
Norlandia förskolor Sagoträdet,förskola,Tappvägen 8 D,59.3631972,17.9505849,Mariehäll
Orkestern,förskola,Responsgatan 1,59.2974806,18.0027904,Västberga
Paletten Huvudfabriksgatan 18–20,förskola,Huvudfabriksgatan 18–20,59.2998468,17.9902536,Midsommarkransen
Prästängen,förskola,Prästgårdsgränd 16,59.2813446,18.0103612,Älvsjö
Pysslingen Färjan,förskola,Färjestadsvägen 5,59.3389752,17.9038639,Nockebyhov
Pysslingen Förskolor Isälven,förskola,Kamrerarvägen 19,59.2931554,17.9862666,Hägerstensåsen
Pysslingen Kastanjelunden,förskola,Lummelundagatan 3,59.3564118,17.9001156,Beckomberga
Pysslingen Mälarhöjdsparken,förskola,Emilia Fogelklous gata 10,59.2856162,17.9520797,Fruängen
Pysslingen Sagoträdet,förskola,Långbrovägen 55,59.2809324,17.9900076,Älvsjö
Pysslingen Smältrullen,förskola,Borrvägen 5,59.2939371,17.9972595,Västberga
Pysslingen Typografen,förskola,Gösta Ekmans Väg 7,59.3031586,17.9798047,Hägersten
Pysslingen Örtagården,förskola,Örtagårdsvägen 1–2,59.2797772,17.9947307,Långsjö
Raoul Wallenbergförskolan Mariehäll,förskola,Bällstavägen 8,59.3602189,17.9599411,Mariehäll
Raoul Wallenbergs Förskola,förskola,Beckombergavägen 314,59.3564858,17.9038125,Eneby
Regnbågen Slättgårdsvägen 72,förskola,Slättgårdsvägen 72,59.2918329,17.95082,Mälarhöjden
Rödkulla,förskola,Långängsvägen 56,59.2743741,17.9701129,Älvsjö
Rönneberga,förskola,Vattenledningsvägen 24 A och B,6576477.0,150612.0,
Sagoberget,förskola,Kilsbergsvägen 9,59.3387127,17.9784143,Traneberg
Sjöberget,förskola,Torsten Alms gata 86,59.3091416,17.9858859,Aspudden
Sjöstjärnan Rävsnäsvägen 77–79,förskola,Rävsnäsvägen 77–79,59.2797296,18.0280004,Örby slott
Skatboet,förskola,Valutavägen 90,59.2982158,17.9789564,Hägerstensåsen
Skattkistan Sandalettgatan 9,förskola,Sandalettgatan 9,59.2818584,18.0074888,Älvsjö
Smeden,förskola,Klensmedsvägen 10,59.295562,17.9966457,Västberga
Snabelskon,förskola,Sulvägen 62,59.2843302,18.0098802,Solberga
Snöbollen,förskola,Snöbollsgränd 3,59.291182,17.9615966,Västertorp
Snöripan,förskola,Snöripsvägen 34,59.2729324,17.9775492,Långsjö
Solgårdens Waldorfförskola,förskola,Marklandsbacken 11,59.3359775,17.9387975,Åkeslund
Solkatten,förskola,Midsommarvägen 20,59.3001162,18.008139,Midsommarkransen
Solkatten Medaljonggatan 10–14,förskola,Medaljonggatan 10–14,59.2832262,17.9980649,Solberga
Solstrålen Hägerstensvägen 179,förskola,Hägerstensvägen 179,59.3048255,17.9899728,Aspudden
Solängen,förskola,Solberga Ängsväg 4–6,59.2814997,18.0130976,Älvsjö
SPIRA Förskolor Bromma,förskola,Tunnlandsvägen 91 A,59.3366239,17.9393558,Bromma
Svandammsgården,förskola,Cedergrensvägen 5–7,59.3018124,18.000362,Midsommarkransen
Svanens förskola vid Telefonplan,förskola,Flygelgatan 1,59.2983557,18.0008673,Västberga
Sylvester,förskola,Sylvestergatan 2–6,59.2852172,18.0306373,Älvsjö
Tellusbarn Pusslet,förskola,Mockasinvägen 24,59.2836864,18.0156527,Solberga
Toppen,förskola,Persmässgränd 16,59.2956123,17.956764,Mälarhöjden
Torngårdens Waldorfförskola,förskola,Drachmannsgatan 3,59.345625,17.8883724,Blackeberg
"Treklövern, Stamgatan 2 A",förskola,Stamgatan 2 A,59.2840519,18.0413923,Östberga
Trollsländan,förskola,Sulvägen 22,59.2864905,18.004748,Solberga
Tryggis,förskola,Doktor Abrahams väg 29,59.3602436,17.912345,Eneby
Vasan,förskola,Vasaloppsvägen 110,59.2922218,17.9611069,Västertorp
"Vi som växer, Förskolan Vansö",förskola,Vansövägen 4,59.2732527,18.034312,Älvsjö
Viveln,förskola,Vivelvägen 40,59.2777684,17.9906706,Älvsjö
Vågavilja,förskola,Gårdstigen 1,59.2661402,17.974448,Långsjö
Ålstens Montessoriförskola,förskola,Bågvägen 42,59.3188933,17.9519888,Ålsten
Åsen,förskola,Sedelvägen 2B,59.297199,17.985313,Hägerstensåsen
Älvens Förskola,förskola,Älvsjö gårdsväg 3–9,59.2769127,18.0113096,Liseberg
Älvsjö förskola,förskola,Långbrodalsvägen 1,59.2795055,18.0021474,Liseberg
Älvsjöbarnen,förskola,Murgrönsvägen 17,59.2767256,17.9679808,Älvsjö
Älvskogen,förskola,Långsjövägen 33,59.2742031,17.9974537,Långsjö
Ängbygården – Ängbybarnens förskolor,förskola,Vultejusvägen 63–67,59.3437417,17.9088371,Norra Ängby
Äppelängen,förskola,Täckhammarsvägen 21,59.2816742,18.0355227,Östberga
"Preem - Stockholm,Islandstorget",Bensinmack,Bergslagsvägen,59.3463943,17.8938708,Södra Ängby
Nockeby Pizzeria,Restaurang & Snabbmat,Skaldevägen,59.3294442,17.928936,Nockeby
al Caminetto,Restaurang & Snabbmat,Gustavslundsvägen,59.3328927,17.9774152,Alvik
ICA Nära Abrahamsberg,Matbutik,Abrahamsbergsvägen,59.3361456,17.9518695,Bromma
Sorbon,Restaurang & Snabbmat,Drottningholmsvägen,59.3399236,17.9405182,Bromma
ICA Supermarket Alviks Torg,Matbutik,Drottningholmsvägen,59.3327076,17.9829618,Traneberg
ICA Supermarket,Matbutik,Tunnlandet,59.3380314,17.9383011,Åkeslund
ICA HM:s Livs,Matbutik,Bergviksvägen,59.3232066,17.9567889,Ålsten
Coop Engströms Livs,Matbutik,Nockeby Torg,59.3288554,17.9286351,Bromma
Apotek Hjärtat,Apotek,Nockeby Torg,59.3290947,17.9287271,Bromma
Nockeby bageri,Kafé,Nockeby Torg,59.3289102,17.9279354,Nockeby
ICA Nära Smelivs,Matbutik,Sunnerdahlsplan,59.3209746,17.9724739,Smedslätten
Park Konditori,Kafé,Västerled,59.3290661,17.9733633,Äppelviken
McDonald's,Restaurang & Snabbmat,Tunnlandet,59.3386853,17.938783,Bromma
Caffè Nero,Kafé,Gustavslundsvägen,59.332752,17.9816507,Alvik
Vedugnen i Alvik,Restaurang & Snabbmat,Ryggåsgatan,59.3321012,17.9744164,Alvik
Ålstens Pizzeria,Restaurang & Snabbmat,Ålstensgatan,59.3226193,17.9564095,Ålsten
Gateau,Kafé,Ålstensgatan,59.3223291,17.9556424,Ålsten
Apoteket,Apotek,Vidängsvägen,59.3350061,17.9780238,Alvik
Kullens,Restaurang & Snabbmat,Vidängsvägen,59.335329,17.9795122,Traneberg
Stammisstället,Restaurang & Snabbmat,Ängby torg,59.3473014,17.9079113,Norra Ängby
Björklunds hage,Lekplats,Runforskarvägen,59.3484479,17.9014054,Norra Ängby
East Ocean,Restaurang & Snabbmat,Tunnlandet,59.3391073,17.9388025,Bromma
Resturang Bryggan,Restaurang & Snabbmat,Lusthusbacken,59.317994,17.9447759,Ålsten
La Rustica,Kafé,Långskeppsgatan,59.3513794,17.9000021,Beckomberga
Torghörnan,Kafé,Ängby torg,59.3468849,17.9085116,Norra Ängby
Kronans Apotek,Apotek,Ulvsundavägen,59.3565847,17.9519799,Mariehäll
Shiva,Restaurang & Snabbmat,Dalgången,59.3311297,17.9112186,Nockebyhov
Brommaplans Bibliotek,Bibliotek,Klädesvägen,59.3387884,17.9401533,Bromma
Sushi Bar Kirin,Restaurang & Snabbmat,Knypplerskevägen,59.3392166,17.9378171,Bromma
Bromma Thai,Restaurang & Snabbmat,Rånövägen,59.3333107,17.9244454,Nockeby
Sofie's,Restaurang & Snabbmat,Hemslöjdsvägen,59.3379176,17.953079,Ulvsunda
Brommaplans Grillen,Restaurang & Snabbmat,Kvarnbacksvägen,59.3423027,17.9501741,Bromma
Gateau,Kafé,Färjestadsvägen,59.3418988,17.905965,Norra Ängby
Ängby Sushi & Thai,Restaurang & Snabbmat,Färjestadsvägen,59.341486,17.9055784,Norra Ängby
Oh! Delhi,Restaurang & Snabbmat,Kvarnbacksvägen,59.3401238,17.9409471,Bromma
Bromma Pizzeria,Restaurang & Snabbmat,Klädesvägen,59.3387354,17.9407566,Bromma
Appetito,Restaurang & Snabbmat,Västerled,59.3288385,17.938666,Olovslund
Brasserie Maison,Restaurang & Snabbmat,Rörläggarvägen,59.3308229,17.9466098,Abrahamsberg
Coop Brommaplan,Matbutik,Klädesvägen,59.3385721,17.9394968,Bromma
Apoteket,Apotek,Klädesvägen,59.3388684,17.9396897,Bromma
Pizzeria La Bella,Restaurang & Snabbmat,Gustav III:s Väg,59.3339835,17.9477962,Abrahamsberg
Tropical Wok & Sushi,Restaurang & Snabbmat,Gustav III:s Väg,59.3340656,17.9480429,Abrahamsberg
Kanazawa Sushi Bar,Restaurang & Snabbmat,Ulvsundavägen,59.3350797,17.9690771,Ulvsunda
Drottningholms Pizzeria,Restaurang & Snabbmat,Rånövägen,59.3333467,17.924382,Nockeby
Pizzeria Tranan,Restaurang & Snabbmat,Tranebergsvägen,59.3355624,17.978447,Traneberg
Dignity,Restaurang & Snabbmat,Ulvsundavägen,59.3351501,17.9687169,Ulvsunda
Restaurang Figaro,Restaurang & Snabbmat,Per Ekströms Väg,59.3455873,17.8938441,Södra Ängby
Restaurang China House,Restaurang & Snabbmat,Bergslagsvägen,59.3472311,17.8945147,Södra Ängby
Pizzeria Islandstorget,Restaurang & Snabbmat,Cederströmsvägen,59.3466991,17.892908,Södra Ängby
Zorba Pizzeria,Restaurang & Snabbmat,Bällstavägen,59.3563838,17.9106348,Bromma kyrka
Lomsak thaiwok,Restaurang & Snabbmat,Spångavägen,59.3569646,17.9099118,Eneby
Café Blomma,Kafé,Åkeshovs Gårdsväg,59.3415549,17.9269697,Åkeshov
Waynes coffee,Kafé,Gårdsfogdevägen,59.356948,17.956732,Mariehäll
Coop Nära Minneberg,Matbutik,Svartviks Torg,59.3393269,17.9894805,Traneberg
Abrahamsbergs Sushi,Restaurang & Snabbmat,Bävervägen,59.3361288,17.952701,Abrahamsberg
Trafikskola,Trafikskola,Linta gårdsväg,59.3486749,17.9406777,Riksby
Thai isaan restaurang,Restaurang & Snabbmat,Voltavägen,59.345016,17.969834,Ulvsunda industriområde
Lekplats,Lekplats,Köpsvängen,59.3549796,17.9563841,Mariehäll
Lekplats,Lekplats,Emils Gata,59.3633596,17.9484247,Mariehäll
Gäddan,Lekplats,Ronja Rövardotters Stig,59.3635019,17.9474061,Mariehäll
STC,Gym/Utomhusgym,Annedalsvägen,59.3651762,17.9496682,Mariehäll
MLG Sushi,Restaurang & Snabbmat,Pippi Långstrumps Gata,59.3640664,17.9465871,Mariehäll
Kronans Apotek,Apotek,Vidängsplan,59.3330529,17.9805444,Alvik
Alviks Bibliotek,Bibliotek,Gustavslundsvägen,59.3327618,17.9823693,Alvik
Daiichi,Restaurang & Snabbmat,Tunnlandet,59.3390231,17.939339,Bromma
Joe & The Juice,Kafé,Gustavslundsvägen,59.3325288,17.9830495,Alvik
Rasmus grill,Restaurang & Snabbmat,Tunnlandet,59.3387764,17.9388636,Bromma
Systembolaget,Systembolag,Klädesvägen,59.3388216,17.9399936,Bromma
Circle K,Bensinmack,Alviksskälet,59.3329833,17.9755326,Alvik
Annedals Thai takeaway,Restaurang & Snabbmat,Bällstaågatan,59.3639396,17.9539292,Mariehäll
Max,Restaurang & Snabbmat,Ulvsundavägen,59.3505928,17.95733,Ulvsunda industriområde
Melanders Alvik,Restaurang & Snabbmat,Gustavslundsvägen,59.332443,17.9837094,Alvik
Restaurang Tryffel,Restaurang & Snabbmat,Porfyrvägen,59.3364592,17.9879367,Traneberg
Ålstensgatan 15,Kafé,Ålstensgatan,59.3236708,17.9569248,Ålsten
ICA Nära Annedal,Matbutik,Bällstavägen,59.3610384,17.9490899,Mariehäll
SATS Alvik,Gym/Utomhusgym,Gustavslundsvägen,59.3322677,17.9821,Alvik
Matleverantören,Restaurang & Snabbmat,Ranhammarsvägen,59.3494616,17.9620882,Bromma
Hammargrillen,Restaurang & Snabbmat,Ranhammarsvägen,59.3490816,17.9607815,Bromma
Lekplats,Lekplats,Sigrid Undsets gata,59.3471861,17.8871147,Blackeberg
Astrids skafferi,Restaurang & Snabbmat,Färjestadsvägen,59.341696,17.905837,Norra Ängby
Texas Longhorn,Restaurang & Snabbmat,Drottningholmsvägen,59.3367003,17.9569973,Ulvsunda
Robert E:S Choklad,Kafé,Grundtvigsgatan,59.3467144,17.8845991,Blackeberg
Lekplats,Lekplats,Grundtvigsgatan,59.3450877,17.8874242,Blackeberg
Lekplats,Lekplats,Thespisvägen,59.3267362,17.9339432,Höglandet
Ålstensgatan 18 Sushi,Restaurang & Snabbmat,Ålstensgatan,59.3232346,17.9561914,Ålsten
Dr. Fagerberg,Vårdcentral,Cronströmsvägen,59.3586181,17.9544319,Mariehäll
Brödernas,Restaurang & Snabbmat,Bergslagsvägen,59.347413,17.8939697,Södra Ängby
Hemköp Bromma Blackeberg C,Matbutik,Wergelandsgatan,59.3474912,17.8843764,Blackeberg
Blackebergs bibliotek,Bibliotek,Wergelandsgatan,59.3477669,17.8843846,Blackeberg
Apotek Hjärtat,Apotek,Vinjegatan,59.3481204,17.8840425,Blackeberg
Inari Sushi,Restaurang & Snabbmat,Vinjegatan,59.3478551,17.883272,Blackeberg
Johannesfredsgrillen,Restaurang & Snabbmat,Johannesfredsvägen,59.3437928,17.9700701,Ulvsunda industriområde
itrim,Gym/Utomhusgym,Drottningholmsvägen,59.3392618,17.9402272,Bromma
Brommarondellens Trafikskola,Trafikskola,Brommaplan,59.3389785,17.9394763,Bromma
Garros Bistro,Restaurang & Snabbmat,Gustavslundsvägen,59.3322143,17.9816828,Alvik
Pokeburger,Restaurang & Snabbmat,Gustavslundsvägen,59.3317992,17.9849072,Alvik
Gustafs Matsal & Bar,Restaurang & Snabbmat,Gustavslundsvägen,59.331474,17.9846622,Alvik
Fitness24Seven,Gym/Utomhusgym,Bällstavägen,59.3607139,17.9557816,Mariehäll
Bun Meat Bun,Restaurang & Snabbmat,Bällstavägen,59.3607344,17.9549192,Mariehäll
Lekplats,Lekplats,Beckomberga Ängsväg,59.3557406,17.8991898,Beckomberga
Lekplats,Lekplats,Torgnyvägen,59.3545067,17.8968533,Beckomberga
Takumi Sushi & Ramen,Restaurang & Snabbmat,Bällstavägen,59.3606282,17.9497799,Mariehäll
Mariehälls Pizzeria,Restaurang & Snabbmat,Bällstavägen,59.3606924,17.9494125,Mariehäll
Miss Goa,Restaurang & Snabbmat,Bällstavägen,59.3607868,17.9475027,Mariehäll
Neko Wok,Restaurang & Snabbmat,Köpsvängen,59.3559663,17.9547679,Mariehäll
Wienerkonditoriet,Kafé,Köpsvängen,59.3553007,17.9565688,Mariehäll
shish lebanse street food,Restaurang & Snabbmat,Köpsvängen,59.3560211,17.9549757,Mariehäll
Spisa Husmanskost,Restaurang & Snabbmat,Köpsvängen,59.355981,17.9550336,Mariehäll
Joe & The Juice,Kafé,Köpsvängen,59.3549986,17.9567167,Mariehäll
Nockeby trafikskola,Trafikskola,Arkitektvägen,59.3342969,17.9512407,Abrahamsberg
Blackebergsgrillen,Restaurang & Snabbmat,Blackebergsplan,59.3477646,17.8837209,Blackeberg
Jhonny's,Restaurang & Snabbmat,Blackebergsplan,59.3473406,17.8833606,Blackeberg
Lekplats,Lekplats,Poppelvägen,59.325213,17.9752862,Äppelviken
Lekplats,Lekplats,Blackebergsvägen,59.3372928,17.9008154,Södra Ängby
Bastard Burgers,Restaurang & Snabbmat,Gustavslundsvägen,59.3328103,17.9821701,Alvik
Abrahamsbergs Café,Kafé,Bävervägen,59.3354159,17.9520473,Stora mossen
Tandläkare Frida Sadeghi,Tandläkare,Gustav III:s Väg,59.334076,17.9492416,Abrahamsberg
art sushi | sashimi,Restaurang & Snabbmat,Gustavslundsvägen,59.3329284,17.9772143,Alvik
Georgian House,Restaurang & Snabbmat,Drottningholmsvägen,59.33733,17.9541981,Ulvsunda
Friskis & Svettis,Gym/Utomhusgym,Drottningholmsvägen,59.3377042,17.9488966,Bromma
Mack Ohlson,Bensinmack,Lusthusbacken,59.317936,17.9447798,Ålsten
Il Bicchiere,Restaurang & Snabbmat,Bågvägen,59.3221809,17.9555082,Ålsten
Ålstenstandläkarna,Tandläkare,Ålstensgatan,59.3239447,17.9564772,Ålsten
Effekt,Gym/Utomhusgym,Rörläggarvägen,59.3307953,17.9473003,Abrahamsberg
Maxi ICA Stormarknad Bromma,Matbutik,Köpsvängen,59.3537504,17.9562145,Mariehäll
Jarla Trafikskola,Trafikskola,Travbanevägen,59.3626452,17.9404182,Mariehäll
Dizin,Restaurang & Snabbmat,Arvid Mörnes väg,59.3479568,17.8771682,Blackeberg
Olivias krog,Restaurang & Snabbmat,Holbergsgatan,59.346484,17.8818327,Blackeberg
Kaskad,Biograf,Blackebergsplan,59.3475522,17.8829427,Blackeberg
Sushi Yama,Restaurang & Snabbmat,Köpsvängen,59.3536028,17.9570771,Ulvsunda industriområde
Espresso House,Kafé,Köpsvängen,59.355743,17.9555179,Mariehäll
Tasty Sushi,Restaurang & Snabbmat,Mariehällsvägen,59.3626003,17.9552586,Mariehäll
SATS Bromma Blocks,Gym/Utomhusgym,Köpsvängen,59.3533955,17.9566347,Mariehäll
Bistro Bromma,Restaurang & Snabbmat,Spångavägen,59.3541217,17.91538,Bromma kyrka
Kafé,Kafé,Ålstens Skogsväg,59.3152289,17.9661388,Smedslätten
Minnies Thai Kitchen (Fiskvagnen),Restaurang & Snabbmat,Bryggerivägen,59.3492328,17.9662725,Ulvsunda industriområde
Gym/Utomhusgym,Gym/Utomhusgym,Spångavägen,59.3612682,17.9047892,Eneby
Gym/Utomhusgym,Gym/Utomhusgym,Margretelundsvägen,59.3350183,17.9875133,Traneberg
Mille Gusti,Restaurang & Snabbmat,Bergslagsvägen,59.3469112,17.8950251,Södra Ängby
Il Forno Italiano,Restaurang & Snabbmat,Flygplatsinfarten,59.3552831,17.945607,Mariehäll
Restaurang & Snabbmat,Restaurang & Snabbmat,Flygplatsinfarten,59.355298,17.9458854,Mariehäll
Restaurang & Snabbmat,Restaurang & Snabbmat,Flygplatsinfarten,59.3553061,17.9453096,Mariehäll
Wok & Sushi,Restaurang & Snabbmat,Flygplatsinfarten,59.3553346,17.9450577,Mariehäll
Brödernas,Restaurang & Snabbmat,Kamomillagatan,59.3615294,17.949113,Mariehäll
STC,Gym/Utomhusgym,Bällstavägen,59.3610575,17.9481887,Mariehäll
PWR studio,Gym/Utomhusgym,Annedalsvägen,59.3647168,17.9508775,Mariehäll
Annedals Tandklinik,Tandläkare,Alfons Åbergs Gata,59.3651243,17.9467368,Mariehäll
Bromma fysioterapi,Fysioterapeut,Holbergsgatan,59.3470447,17.883942,Blackeberg
Stc,Gym/Utomhusgym,Grundtvigsgatan,59.3470485,17.8848402,Blackeberg
Salladsmagasinet Bromma,Restaurang & Snabbmat,Follingbogatan,59.3582783,17.8994003,Beckomberga
Lekplats,Lekplats,Grönviksvägen,59.3227145,17.9284398,Nockeby
Lekplats,Lekplats,Grönviksvägen,59.3201184,17.9432023,Ålsten
PanPan Sushi,Restaurang & Snabbmat,Nockeby Torg,59.3295844,17.9290369,Nockeby
Pissamai Thai Food,Restaurang & Snabbmat,Björnsonsgatan,59.3492013,17.8802891,Blackeberg
Nano Café,Kafé,Vinjegatan,59.3479723,17.8832788,Blackeberg
Raanthai Blackeberg,Matbutik,Vinjegatan,59.3480353,17.8841495,Blackeberg
Bistro Tarboush,Restaurang & Snabbmat,Blackebergsvägen,59.3459118,17.8929701,Södra Ängby
Ängby Tandläkarna,Tandläkare,Bergslagsvägen,59.3471271,17.8947734,Södra Ängby
Kompir,Restaurang & Snabbmat,Långskeppsgatan,59.3514662,17.8998872,Beckomberga
Maji,Restaurang & Snabbmat,Långskeppsgatan,59.3512818,17.9002803,Norra Ängby
Fotvårds Kliniken,Vårdcentral,Långskeppsgatan,59.3515469,17.8997241,Beckomberga
Brommagymnasterna,Fysioterapeut,Abrahamsbergsvägen,59.3347889,17.9514352,Abrahamsberg
Pizzeria Kaktusen,Restaurang & Snabbmat,Drottningholmsvägen,59.3376357,17.9522899,Riksby
Medstore,Apotek,Riksbyvägen,59.3411605,17.9443373,Riksby
Polonez Cafe & Deli,Kafé,Bergslagsvägen,59.3397115,17.9381491,Bromma
Tandläkare,Tandläkare,Ulvsundavägen,59.3351158,17.9688271,Ulvsunda
PWR GYM,Gym/Utomhusgym,Tappvägen,59.3639406,17.9501675,Mariehäll
Ruccola,Restaurang & Snabbmat,Bällstavägen,59.3605064,17.9547529,Mariehäll
Sushi Dumplings,Restaurang & Snabbmat,Emils Gata,59.3627067,17.9501658,Mariehäll
Italgotti,Restaurang & Snabbmat,Annedalsvägen,59.364388,17.9510147,Mariehäll
Di Manzo,Restaurang & Snabbmat,Alpvägen,59.3626378,17.9507768,Mariehäll
Café Lilla Hörnan,Kafé,Gårdsfogdevägen,59.3565575,17.9594494,Mariehäll
Damas,Restaurang & Snabbmat,Tackjärnsvägen,59.345331,17.9718496,Ulvsunda industriområde
Sweet Chili,Restaurang & Snabbmat,Ulvsundavägen,59.3531098,17.9587026,Ulvsunda industriområde
Fotia Kliniken,Vårdcentral,Gustavslundsvägen,59.3318908,17.9834316,Alvik
Banthai Fastfood,Restaurang & Snabbmat,Vidängsvägen,59.3361589,17.9792137,Traneberg
Tandläkare,Tandläkare,Drottningholmsvägen,59.3333043,17.9785204,Alvik
Deli Molinari,Restaurang & Snabbmat,Tranebergsvägen,59.3350001,17.9795483,Traneberg
Munlyckan,Tandläkare,Gustavslundsvägen,59.3327994,17.9783979,Alvik
You Train,Gym/Utomhusgym,Storsylsvägen,59.338091,17.9804192,Traneberg
Alviks Grillen,Restaurang & Snabbmat,Gustavslundsvägen,59.3329242,17.9794225,Alvik
Hemma Hos Annika,Restaurang & Snabbmat,Dybecksvägen,59.3474854,17.9004738,Norra Ängby
Lekplats,Lekplats,Tapetserarvägen,59.3302896,17.9454151,Olovslund
Lekplats,Lekplats,Johan Tillanders väg,59.3437051,17.8741436,Blackeberg
OKQ8 Bromma Flygplats/Solvalla,Bensinmack,Cumulusvägen,59.3610885,17.9408544,Mariehäll
Distriktstandvården Ålsten,Tandläkare,Ålstensgatan,59.3239757,17.9565442,Ålsten
Brommatandläkarna,Tandläkare,Rånövägen,59.3334499,17.9242,Nockeby
Capresi,Restaurang & Snabbmat,Ulvsundavägen,59.3560405,17.9551351,Mariehäll
Marolla,Restaurang & Snabbmat,Västerledstorget,59.329357,17.9681518,Stora mossen
Vietsmak,Restaurang & Snabbmat,Bällstavägen,59.3562527,17.9103006,Bromma kyrka
Shell,Bensinmack,Ulvsundavägen,59.340805,17.9611842,Ulvsunda
Stora Coop Bromma,Matbutik,Ulvsundavägen,59.3565785,17.9530154,Mariehäll
Willys Stockholm Bromma,Matbutik,Ulvsundavägen,59.3570495,17.9505295,Mariehäll
OKQ8 Bromma,Bensinmack,Brommaplan,59.3405266,17.940107,Bromma
Hemköp Garpes,Matbutik,Sobelgränd,59.3289709,17.9563616,Stora mossen
Grill,Restaurang & Snabbmat,Färjestadsvägen,59.34216,17.9070437,Norra Ängby
Sjöpaviljongen,Restaurang & Snabbmat,Tranebergs Strand,59.3316151,17.9862842,Traneberg
Alviksgrillen,Restaurang & Snabbmat,Gustavslundsvägen,59.332954,17.9793659,Alvik
Kalaset Strand,Restaurang & Snabbmat,Gustavslundsvägen,59.3281349,17.9848095,Alvik
Coop Tranebergsvägen,Matbutik,Tranebergsvägen,59.3354191,17.9694879,Ulvsunda
Lekplats,Lekplats,Tunnlandsvägen,59.3355526,17.94158,Åkeslund
Hemköp Bromma Ängby Torg,Matbutik,Ängby torg,59.3469686,17.9086154,Norra Ängby
Rimiparken,Lekplats,Rastvägen,59.3290962,17.9120625,Nockebyhov
Nockebygrillen,Restaurang & Snabbmat,Nockeby Kyrkväg,59.3291831,17.9277933,Nockeby
Lekplatsen Skeden,Lekplats,Åkeshovsvägen,59.334029,17.9322402,Åkeslund
Lekplats,Lekplats,Brålunden,59.3313191,17.9301361,Nockeby
Lekplats,Lekplats,Lillsjövägen,59.3387368,17.9560295,Ulvsunda
Krua Charoen,Restaurang & Snabbmat,Drottningholmsvägen,59.3346632,17.9665761,Ulvsunda
Kaffekannan,Lekplats,Grimstahamnsvägen,59.3330794,17.9212214,Nockeby
Bensinmack,Bensinmack,Bergslagsvägen,59.3462433,17.8940767,Södra Ängby
Systembolaget,Systembolag,Ulvsundavägen,59.3562551,17.9544105,Mariehäll
Lekplats,Lekplats,Båtparken stig,59.3395349,17.8971977,Södra Ängby
Blackebergs sjukhus,Sjukhus,Blackebergs Gårdsväg,59.3407915,17.880512,Bromma stadsdelsområde
Lekplats,Lekplats,Tranebergs Strand,59.3320825,17.9861251,Traneberg
Lekplats,Lekplats,Penselgränd,59.340241,17.8928267,Södra Ängby
Lekplats,Lekplats,Enhörningsgränd,59.3298094,17.9575759,Stora mossen
ICA Supermarket Bromma,Matbutik,Spångavägen,59.3566441,17.9114325,Bromma kyrka
Skogsbo,Kafé,Ålstens Skogsväg,59.3141158,17.9621571,Smedslätten
Lekplats,Lekplats,Alviksvägen,59.3168096,17.9614102,Smedslätten
Lekplats,Lekplats,Carl Larssons Väg,59.3416716,17.8950606,Södra Ängby
Bromma Kebab,Restaurang & Snabbmat,Köpsvängen,59.3569646,17.9479992,Mariehäll
Lekplats,Lekplats,Bällstavägen,59.360565,17.948583,Mariehäll
Lekplats,Lekplats,Adolfsbergsvägen,59.358611,17.954015,Mariehäll
Blacken,Lekplats,Grundtvigsgatan,59.3443791,17.8868159,Blackeberg
Lekplats,Lekplats,"Åkeshovs eljusspår 1,5 km",59.3439671,17.9261828,Åkeshov
Lekplats,Lekplats,Alpvägen,59.3627427,17.9536003,Mariehäll
Bubbelparken,Lekplats,Linabergsstigen,59.3620025,17.9535551,Mariehäll
Kratsbodaparken,Lekplats,Kratsbodavägen,59.3593326,17.9551604,Mariehäll
Lekplats,Lekplats,Fältmarskalksvägen,59.3385488,17.9623984,Ulvsunda
Flintsågen,Lekplats,Egilsvägen,59.3453476,17.9154268,Norra Ängby
Lekplats,Lekplats,Plommonvägen,59.3600995,17.917102,Eneby
Halstret,Lekplats,Anundsvägen,59.3526779,17.8912414,Beckomberga
Circle K Råcksta,Bensinmack,Råckstavägen,59.3517426,17.8866268,Råcksta
CNG Bromma,Bensinmack,Drottningholmsvägen,59.3377949,17.9343005,Bromma
Lekplats,Lekplats,Kyrkoherdevägen,59.3580854,17.9122928,Eneby
Lekplats,Lekplats,Västerledstorget,59.3291833,17.9686729,Stora mossen
Lekplats,Lekplats,Norlindsvägen,59.3550133,17.9148699,Bromma kyrka
Lekplats,Lekplats,Spångavägen,59.3548906,17.9146004,Bromma kyrka
Lekplats,Lekplats,Terserusvägen,59.3551456,17.9152635,Bromma kyrka
Lekplats,Lekplats,Plåtslagarvägen,59.3361083,17.9512623,Abrahamsberg
Lekplats,Lekplats,Gamla Bromstensvägen,59.3658062,17.9319645,Bällsta
Lekplats,Lekplats,Gamla Bromstensvägen,59.3658947,17.9315475,Bällsta
Lekplats,Lekplats,Ulvsunda Slottsväg,59.3359572,17.9698093,Ulvsunda
Daisy's,Restaurang & Snabbmat,Ulvsundavägen,59.3405556,17.9610049,Ulvsunda
Lekplats,Lekplats,Tranebergsvägen,59.3350013,17.9892837,Traneberg
Lekplats,Lekplats,Porfyrvägen,59.3351875,17.9885794,Traneberg
Lekplats,Lekplats,Olovslundsvägen,59.3301379,17.9398654,Olovslund
Lekplats,Lekplats,Vidängsvägen,59.3370409,17.9791944,Traneberg
Lekplats,Lekplats,Vidängsvägen,59.336901,17.9796752,Traneberg
Banthai Fastfood,Restaurang & Snabbmat,Vidängsvägen,59.3361837,17.9792432,Traneberg
Lekplats,Lekplats,Sigrid Undsets gata,59.3479467,17.8865396,Blackeberg
Lekplats,Lekplats,Björnsonsgatan,59.3480883,17.8790937,Blackeberg
Lekplats,Lekplats,Vidängsvägen,59.3390112,17.9790893,Traneberg
Lekplats,Lekplats,Johannesfredsvägen,59.3464,17.9718022,Ulvsunda industriområde
Lekplats,Lekplats,Strömkarlsvägen,59.3204437,17.9736502,Smedslätten
Pissamai Thai Food,Restaurang & Snabbmat,Björnsonsgatan,59.3492096,17.8802923,Blackeberg
Lekplats,Lekplats,Ibsengatan,59.3498935,17.8791903,Blackeberg
Bromma sjukhus,Sjukhus,Follingbogatan,59.3589933,17.9000524,Beckomberga
Lekplats,Lekplats,Basaltgränd,59.3621232,17.9014376,Beckomberga
Lekplats,Lekplats,Agatvägen,59.3627753,17.9007351,Eneby
Lekplats,Lekplats,Grundtvigsgatan,59.3442181,17.8878757,Blackeberg
Lekplats,Lekplats,Björnsonsgatan,59.3442311,17.8881535,Blackeberg
Lekplats,Lekplats,Grundtvigsgatan,59.344457,17.8874622,Blackeberg
Lekplats,Lekplats,Arvid Mörnes väg,59.3471618,17.8744826,Blackeberg
Lekplats,Lekplats,Liljegrensvägen,59.3491927,17.9015864,Norra Ängby
Lekplats,Lekplats,Doktor Abrahams väg,59.3555266,17.9232004,Bromma kyrka
Lekplats,Lekplats,Bällstavägen,59.3604986,17.9596633,Mariehäll
Klätterställningen,Lekplats,Bällstavägen,59.35625,17.9077124,Eneby
Gungorna,Lekplats,Bällstavägen,59.3554141,17.9064061,Eneby
Röda,Lekplats,Limonitvägen,59.3576513,17.9061278,Eneby
Lekparken,Lekplats,Alabastervägen,59.357505,17.9076272,Eneby
Runda,Lekplats,Bällstavägen,59.3569141,17.9081415,Eneby
Klätterställningen,Lekplats,Agatvägen,59.3604482,17.900692,Eneby
Lekplats,Lekplats,Beckombergavägen,59.3569531,17.9029208,Beckomberga
Lekplats,Lekplats,Ryggåsgatan,59.3321385,17.9746753,Alvik
Lillsjöns utegym,Gym/Utomhusgym,Kvarnbacksvägen,59.341955,17.9533817,Ulvsunda industriområde
Lekplats,Lekplats,Bårdgränd,59.3382888,17.9307205,Åkeshov
Pilspetsen,Lekplats,Stora Ängby Allé,59.3463961,17.9072244,Norra Ängby
Lekplats,Lekplats,Lummelundagatan,59.3565447,17.9025092,Beckomberga
Lekplats,Lekplats,Beckombergavägen,59.3570767,17.9024506,Beckomberga
Stenlabyrint,Lekplats,Agatvägen,59.3609893,17.900692,Eneby
Lekparken Operetten,Lekplats,Sigurdsvägen,59.3287285,17.9348156,Höglandet
ChopChop Asian Express,Restaurang & Snabbmat,Ulvsundavägen,59.3553016,17.9526324,Mariehäll
KFC,Restaurang & Snabbmat,Ulvsundavägen,59.3554815,17.9520125,Mariehäll
Pizza Hut,Restaurang & Snabbmat,Ulvsundavägen,59.3556839,17.9514308,Mariehäll
Lekplats,Lekplats,Bergslagsvägen,59.3428394,17.9215653,Åkeshov
Lekplats,Lekplats,Beckombergavägen,59.3430163,17.9219531,Åkeshov
Gym/Utomhusgym,Gym/Utomhusgym,"Åkeshovs eljusspår 1,5 km",59.3427563,17.9305386,Åkeshov
Lekplats,Lekplats,Beckombergavägen,59.3429567,17.9207375,Åkeshov
Lekplats,Lekplats,Vadmalsvägen,59.3398847,17.9429916,Bromma
Galonparken,Lekplats,Galonvägen,59.3402899,17.9469614,Riksby
Lekplats,Lekplats,Spångavägen,59.3408045,17.9375364,Bromma
Lekplats,Lekplats,Elias Lönnrots väg,59.3486093,17.8779232,Blackeberg
Lekplats,Lekplats,Klas Klättermus Gata,59.3639759,17.9526942,Mariehäll
Circle K,Bensinmack,Råckstavägen,59.351782,17.886488,Blackeberg
Lekplats,Lekplats,Björnsonsgatan,59.3441123,17.8865127,Blackeberg
Gym/Utomhusgym,Gym/Utomhusgym,Västerled,59.3288471,17.9640062,Stora mossen
Ängbybadet lekplats,Lekplats,Blackebergsvägen,59.3366757,17.8987654,Södra Ängby
Lekplats,Lekplats,Åkeshovsvägen,59.335594,17.9334947,Åkeslund
Gym/Utomhusgym,Gym/Utomhusgym,Linabergsstigen,59.3617969,17.9514533,Mariehäll
Lekplats,Lekplats,Björnsonsgatan,59.3486069,17.8805094,Blackeberg
Lekplats,Lekplats,Ulvsunda Strand,59.3484471,17.9737821,Ulvsunda industriområde
Lekplats,Lekplats,Johannesfredsvägen,59.3475138,17.9717403,Ulvsunda industriområde
Lekplats,Lekplats,Granbacken,59.343095,17.9611018,Ulvsunda industriområde
Solviks utegym,Gym/Utomhusgym,Ålstens Skogsväg,59.3155618,17.9663149,Smedslätten
Gym/Utomhusgym,Gym/Utomhusgym,Alviks strand,59.331536,17.9855691,Alvik
Gym/Utomhusgym,Gym/Utomhusgym,Tyska Bottens Väg,59.3295319,17.9136478,Nockebyhov
Lekplats,Lekplats,Masmästarvägen,59.3456536,17.9750334,Ulvsunda industriområde
Lekplats,Lekplats,Johannesfredsvägen,59.3455396,17.9718453,Ulvsunda industriområde
Lekplats,Lekplats,Tackjärnsvägen,59.3450769,17.9738385,Ulvsunda industriområde
Lekplats,Lekplats,Ståltrådsvägen,59.3454695,17.9723554,Ulvsunda industriområde
Lekplats,Lekplats,Ericavägen,59.3443887,17.9408692,Riksby
Lekplats,Lekplats,Kratsbodavägen,59.3591507,17.9555672,Mariehäll
Lekplats,Lekplats,Kratsbodavägen,59.359318,17.954757,Mariehäll
Lekplats,Lekplats,Kratsbodavägen,59.3594289,17.9547097,Mariehäll
Lekplats,Lekplats,Linabergsstigen,59.3620515,17.9535895,Mariehäll
Lekplats,Lekplats,Linabergsstigen,59.3621188,17.953856,Mariehäll
Lekplats,Lekplats,Alpvägen,59.3619661,17.9532735,Mariehäll
Lekplats,Lekplats,Linabergsstigen,59.3621122,17.9538933,Mariehäll
Lekplats,Lekplats,Alpvägen,59.3621558,17.9538113,Mariehäll
Lekplats,Lekplats,Emils Gata,59.3631834,17.9493822,Mariehäll
Lekplats,Lekplats,Emils Gata,59.3632078,17.9495308,Mariehäll
Lekplats,Lekplats,Emils Gata,59.3631328,17.949495,Mariehäll
Lekplats,Lekplats,Tappvägen,59.3631964,17.9492479,Mariehäll
Lekplats,Lekplats,Emils Gata,59.3632177,17.9495763,Mariehäll
Lekplats,Lekplats,Ronja Rövardotters Stig,59.3633327,17.9474769,Mariehäll
Lekplats,Lekplats,Ronja Rövardotters Stig,59.3634194,17.9473281,Mariehäll
Lekplats,Lekplats,Tegelbergsvägen,59.3583515,17.9529108,Mariehäll
Gym/Utomhusgym,Gym/Utomhusgym,Björnsonsgatan,59.3456372,17.8783771,Blackeberg
Snurran,Lekplats,Sopvägen,59.3184994,17.9544361,Ålsten
Sushiparken,Lekplats,Follingbogatan,59.3582993,17.9040448,Eneby
Lekplatsen Bågen,Lekplats,Bågvägen,59.3226674,17.9548923,Ålsten
Gym/Utomhusgym,Gym/Utomhusgym,Judarskogen Reflexbana MTB,59.340791,17.9068068,Nockebyhov
Marino,Restaurang & Snabbmat,Klubbacken,59.305325,17.9632902,Hägersten
Hemköp Stockholm Älvsjö,Matbutik,Sjättenovembervägen,59.2787519,18.00228,Liseberg
OKQ8,Bensinmack,Kontrollvägen,59.2944349,18.0025876,Västberga
Circle K,Bensinmack,Nioörtsvägen,59.2999537,18.012147,Västberga
McDonald's,Restaurang & Snabbmat,Lerkrogsvägen,59.2930743,18.0012108,Västberga
Coop Västertorp,Matbutik,Störtloppsvägen,59.2927384,17.9676426,Västertorp
Hemköp Hägersten Västertorp,Matbutik,Störtloppsvägen,59.2930981,17.9677873,Västertorp
Sushi Bar,Restaurang & Snabbmat,Störtloppsvägen,59.2924236,17.9679342,Västertorp
Lekplats,Lekplats,Långsjöhöjden,59.2647808,17.9840719,Långsjö
Lekplats,Lekplats,Långbrodalsvägen,59.2715724,17.9845487,Långsjö
ST1,Bensinmack,Elektravägen,59.2946662,18.0099656,Västberga
Apoteket,Apotek,Fruängstorget,59.2857782,17.9646066,Fruängen
Systembolaget,Systembolag,Fruängsgången,59.2856716,17.9638677,Fruängen
Solberga restaurang,Restaurang & Snabbmat,Klacktorget,59.2869324,18.0104442,Solberga
Stora Coop Västberga,Matbutik,Västbergavägen,59.2937143,18.0046482,Västberga
Willys Stockholm Älvsjö,Matbutik,Älvsjö Ängsväg,59.2753,18.0132,Liseberg
ICA Supermarket,Matbutik,Sjövikstorget,59.3073101,18.0296528,Liljeholmen
E4-baren,Restaurang & Snabbmat,Kristallvägen,59.2897345,18.0023026,Solberga
Cafe Vintervikens Trädgård,Kafé,Vinterviksvägen,59.3112368,17.9990416,Aspudden
Coop Gröndal,Matbutik,Gröndalsvägen,59.3160917,18.0116571,Gröndal
Ekensbergs Pizza,Restaurang & Snabbmat,Gröndalsvägen,59.3148143,17.9953198,Gröndal
Lundbergs konditori,Kafé,Sjöbjörnsvägen,59.3160215,18.0103222,Gröndal
Gröndals Sushi Kök,Restaurang & Snabbmat,Gröndalsvägen,59.3158464,18.0136582,Gröndal
Tre Vänner,Restaurang & Snabbmat,Svandammsvägen,59.3014183,18.0120339,Midsommarkransen
Tegelbruket,Kafé,Svandammsvägen,59.3020479,18.0153506,Midsommarkransen
Restaurant Kransen,Restaurang & Snabbmat,Nybodagatan,59.3022631,18.0148264,Midsommarkransen
Pita i parken,Restaurang & Snabbmat,Svandammsvägen,59.301094,18.0069063,Midsommarkransen
Tellus,Biograf,Vattenledningsvägen,59.3019888,18.0075991,Midsommarkransen
OKQ8 Hägersten,Bensinmack,Elsa Brändströms Gata,59.2876582,17.9800825,Fruängen
ICA Nära Telefonplan,Matbutik,Telefonvägen,59.2988217,17.9969403,Midsommarkransen
Pizzeria Italia,Restaurang & Snabbmat,Cedergrensvägen,59.3001157,17.9957628,Midsommarkransen
Best on the best,Restaurang & Snabbmat,LM Ericssons Väg,59.29991,17.9959046,Midsommarkransen
Landet,Restaurang & Snabbmat,Valborgsmässovägen,59.2991679,17.9962667,Midsommarkransen
Lurparken,Lekplats,Huvudfabriksgatan,59.3009202,17.9933312,Midsommarkransen
Telegrillen,Restaurang & Snabbmat,Mikrofonvägen,59.2979103,17.9971428,Midsommarkransen
JJ's,Restaurang & Snabbmat,Främlingsvägen,59.3039515,18.0036438,Midsommarkransen
Coop Älvsjö,Matbutik,Älvsjö Torg,59.2790528,18.0099095,Älvsjö
Gröndals grill & pizza,Restaurang & Snabbmat,Gröndalsvägen,59.3158038,18.0095939,Gröndal
Gröndals bibliotek,Bibliotek,Gröndalsvägen,59.3161337,18.0121677,Gröndal
Gandhi,Restaurang & Snabbmat,Sjöbjörnsvägen,59.316601,18.0083698,Gröndal
Hägern,Restaurang & Snabbmat,Inteckningsvägen,59.2944861,17.9809865,Hägerstensåsen
Ica,Matbutik,Sparbanksvägen,59.2971133,17.982747,Hägerstensåsen
Indian Lotus,Restaurang & Snabbmat,Riksdalervägen,59.2974935,17.9843719,Hägerstensåsen
Da Dante,Restaurang & Snabbmat,Brådstupsvägen,59.3040862,17.9591433,Hägersten
Villa Fridhem,Restaurang & Snabbmat,Mälarhöjdsvägen,59.3016308,17.956049,Mälarhöjden
Coop Örnsberg,Matbutik,Junkergatan,59.3057786,17.9895142,Aspudden
Wintervikens cafe,Kafé,Vinterviksvägen,59.3116377,17.9921168,Aspudden
Pizzeria Sorrento,Restaurang & Snabbmat,Störtloppsvägen,59.2933579,17.9675477,Västertorp
Nickys Thai,Restaurang & Snabbmat,Styrbjörnsvägen,59.3094687,18.0026802,Aspudden
Coop Aspudden,Matbutik,Fågeltorget,59.3053907,17.9932874,Aspudden
Tellus Restaurang,Restaurang & Snabbmat,Dialoggatan,59.2991966,17.9924373,Midsommarkransen
"ICA Hallen, Axelsberg",Matbutik,Selmedalsvägen,59.3048107,17.9755631,Hägersten
Mix Thai,Restaurang & Snabbmat,Doktor Widerströms Gata,59.2840405,17.9578914,Fruängen
Hemköp Stockholm Fruängen C,Matbutik,Fruängsgången,59.2856612,17.9646492,Fruängen
Bankomat,Restaurang & Snabbmat,Sjövikskajen,59.3076959,18.0305063,Liljeholmen
Nästan hemma,Kafé,Slättgårdsvägen,59.3009248,17.957392,Hägersten
Lekplats,Lekplats,Klubbensborgsvägen,59.3048245,17.9590871,Hägersten
Långpannan,Restaurang & Snabbmat,Elsa Borgs Gata,59.2829973,17.9647493,Fruängen
Coop Fruängen,Matbutik,Fruängsgången,59.2854719,17.9653558,Fruängen
Lucky,Restaurang & Snabbmat,Örnsbergsvägen,59.3054372,17.98887,Aspudden
Woktory,Restaurang & Snabbmat,Ellen Keys Gata,59.2846844,17.9662449,Fruängen
Fruängens Läkarhus,Vårdcentral,Fruängsgången,59.2855867,17.9667241,Fruängen
Bella Donna,Restaurang & Snabbmat,Fruängsgatan,59.2853202,17.9631433,Fruängen
Grillhörnan,Restaurang & Snabbmat,Fruängsplan,59.2857793,17.9652246,Fruängen
Fruängens bibliotek,Bibliotek,Fruängsgången,59.2856698,17.9654212,Fruängen
Bigges,Restaurang & Snabbmat,Fruängsgatan,59.2852617,17.9646355,Fruängen
Cafékoppen,Kafé,Fruängstorget,59.2858337,17.9634488,Fruängen
66 Kvadrat Sushi,Restaurang & Snabbmat,Fruängsgatan,59.2847551,17.9618674,Fruängen
Pizzeria Tropicana,Restaurang & Snabbmat,Vasaloppsvägen,59.2937875,17.9655034,Västertorp
Apotek Hjärtat,Apotek,Störtloppsvägen,59.2940587,17.9669036,Västertorp
Kronans Apotek,Apotek,Annebodavägen,59.2847122,18.0301247,Älvsjö
Kronans Apotek,Apotek,Telefonplan,59.2986734,17.9970116,Midsommarkransen
Pepe Nero,Restaurang & Snabbmat,Tivolivägen,59.2951017,18.0048473,Västberga
Circle K Truckdiesel,Bensinmack,Vretensborgsvägen,59.2994785,18.0199642,Västberga
Pizzeria Spader Dam,Restaurang & Snabbmat,Jenny Linds Gata,59.2882766,17.9686475,Fruängen
Restaurang & Snabbmat,Restaurang & Snabbmat,Störtloppsvägen,59.2921669,17.9681563,Västertorp
Korfu Orfa,Restaurang & Snabbmat,Sparbanksvägen,59.2976427,17.9826086,Hägerstensåsen
Wong Kee,Restaurang & Snabbmat,Grönbrinksgatan,59.3069965,18.0290177,Liljeholmen
Gröna Dalen,Restaurang & Snabbmat,Gröndalsvägen,59.3160058,18.0111341,Gröndal
Thai Rung,Restaurang & Snabbmat,Liljeholmstorget,59.3104328,18.0223051,Liljeholmen
Di Metro,Restaurang & Snabbmat,Liljeholmstorget,59.3101026,18.0220192,Liljeholmen
McDonald's,Restaurang & Snabbmat,Liljeholmstorget,59.3104032,18.0229847,Liljeholmen
Coop Liljeholmen,Matbutik,Liljeholmstorget,59.3106203,18.0235883,Liljeholmen
Äldreboendet Trekanten,Restaurang & Snabbmat,Trekantsstranden,59.3134648,18.0181386,Liljeholmen
Liljeholmens Grill,Restaurang & Snabbmat,Liljeholmstorget,59.3100673,18.0218658,Liljeholmen
KFC,Restaurang & Snabbmat,Liljeholmstorget,59.3097444,18.0221382,Liljeholmen
Bravo,Kafé,Liljeholmstorget,59.3101203,18.0232131,Liljeholmen
Lidl,Matbutik,Liljeholmstorget,59.3100484,18.0233359,Liljeholmen
Bara Vedugnspizza,Restaurang & Snabbmat,Örby Slottsväg,59.2797601,18.0342466,Örby slott
Bella Notte,Restaurang & Snabbmat,Tegelbruksvägen,59.3023424,18.0141062,Midsommarkransen
Sats,Gym/Utomhusgym,Buteljgatan,59.3091841,18.0284825,Liljeholmen
Koi Sushi,Restaurang & Snabbmat,Hägerstensvägen,59.3053498,17.9975035,Aspudden
Mama Ye's,Restaurang & Snabbmat,Sjövikstorget,59.3075449,18.0301795,Liljeholmen
ICA Kvantum Liljeholmen,Matbutik,Liljeholmstorget,59.3094423,18.0222688,Liljeholmen
Willys,Matbutik,Nybohovsbacken,59.3093766,18.0211932,Liljeholmen
Brisket & friends,Restaurang & Snabbmat,Upplagsvägen,59.2994274,18.0216412,Västberga
Morningstar Cafe,Restaurang & Snabbmat,Drivhjulsvägen,59.2967508,18.019543,Västberga
Coop Midsommarkransen,Matbutik,Svandammsvägen,59.301647,18.0124794,Midsommarkransen
Svenska Sushiköket,Restaurang & Snabbmat,Tellusborgsvägen,59.3003552,18.0040262,Midsommarkransen
Pizzeria Fellini,Restaurang & Snabbmat,Midsommarvägen,59.300644,18.0121602,Midsommarkransen
Kransens Wok,Restaurang & Snabbmat,Tegelbruksvägen,59.3031402,18.0127352,Midsommarkransen
Tellus Pizza,Restaurang & Snabbmat,Vattenledningsvägen,59.3020127,18.0082047,Midsommarkransen
Nygammalt,Restaurang & Snabbmat,Vattenledningsvägen,59.2998782,18.0046563,Midsommarkransen
Pino,Restaurang & Snabbmat,Nioörtsvägen,59.301504,18.0160105,Midsommarkransen
The Swan,Restaurang & Snabbmat,Erikslundsgatan,59.3006861,18.014473,Midsommarkransen
Restaurang Udden,Restaurang & Snabbmat,Schlytersvägen,59.3064868,18.006486,Aspudden
Älvsjö bibliotek,Bibliotek,Älvsjö Stationsgata,59.2781677,18.0078331,Älvsjö
Lekplats,Lekplats,Sedelvägen,59.296161,17.9808213,Hägerstensåsen
Chicha 08,Restaurang & Snabbmat,Ingenjörsvägen,59.3064952,18.0256387,Liljeholmen
Pepe Nero,Restaurang & Snabbmat,Sjöviksvägen,59.3060136,18.032393,Liljeholmen
Telefonplans bibliotek,Bibliotek,Telefonplan,59.2989246,17.9966603,Midsommarkransen
OKQ8,Bensinmack,Elisabeth Tamms Gata,59.2849919,17.954975,Fruängen
Roots & Soil,Restaurang & Snabbmat,Årstaängsvägen,59.3097676,18.028177,Liljeholmen
Lekplats,Lekplats,Hövdingagatan,59.3063786,17.9972313,Aspudden
Lekplats,Lekplats,Torsten Almsstigen,59.307586,17.9948105,Aspudden
Lisebergs Café & Matsal,Restaurang & Snabbmat,Annebodavägen,59.2871214,18.0266966,Älvsjö
Lekplats,Lekplats,Torsten Alms Gata,59.3094183,17.9942857,Aspudden
Lekplats,Lekplats,Långbrodalsvägen,59.2717013,17.9846451,Långsjö
Lekplats,Lekplats,Långbrodalsvägen,59.2721591,17.985962,Långsjö
Hinode Sushi,Restaurang & Snabbmat,Götalandsvägen,59.2793638,18.004151,Älvsjö
Bapuji,Restaurang & Snabbmat,Älvsjövägen,59.2783471,18.0063075,Liseberg
Lekplats,Lekplats,Slalomvägen,59.2918792,17.9751361,Västertorp
Älvgården Kök & Bar,Restaurang & Snabbmat,Älvsjövägen,59.2780961,18.0061133,Liseberg
Vår Pizza,Restaurang & Snabbmat,Johan Skyttes Väg,59.277762,18.0018118,Liseberg
Cafe Gården,Kafé,Sedelvägen,59.2961996,17.9830405,Hägerstensåsen
Aspuddens apotek,Apotek,Erik Segersälls Väg,59.3061293,18.000954,Aspudden
Bombay Taj,Restaurang & Snabbmat,Hägerstensvägen,59.3055028,18.0031363,Aspudden
Mums,Restaurang & Snabbmat,Hägerstensvägen,59.305703,18.001019,Aspudden
EPA,Restaurang & Snabbmat,Hägerstensvägen,59.3054736,18.0018403,Aspudden
Aspuddens bibliotek,Bibliotek,Hägerstensvägen,59.3054669,18.0015478,Aspudden
Gröndals Apotek,Apotek,Gröndalsvägen,59.316151,18.0123077,Gröndal
Lekplats,Lekplats,Metronomgatan,59.297741,18.000378,Västberga
Lekplats,Lekplats,Metronomgatan,59.2978478,18.0005014,Västberga
Café Hitom,Kafé,Klaviaturgatan,59.2979163,18.0001688,Västberga
Café Momo,Kafé,Liljeholmstorget,59.3098599,18.0217484,Liljeholmen
Delfin,Restaurang & Snabbmat,Gröndalsvägen,59.3151188,18.0149853,Gröndal
DIN-DIN Club,Restaurang & Snabbmat,Sjövikstorget,59.3081563,18.0291693,Liljeholmen
German Beer Hall Liljeholmen,Restaurang & Snabbmat,Buteljgatan,59.3083331,18.0296139,Liljeholmen
Älvsjö Pizzeria,Restaurang & Snabbmat,Älvsjövägen,59.2849116,17.9931883,Älvsjö
Memozin Kolgrill,Restaurang & Snabbmat,Älvsjövägen,59.2848081,17.9933848,Älvsjö
Långbro Pizzeria,Restaurang & Snabbmat,Svartlösavägen,59.2809246,17.9860678,Älvsjö
SATS Älvsjö,Gym/Utomhusgym,Götalandsvägen,59.2810159,18.0142423,Älvsjö
Klockhusköket,Restaurang & Snabbmat,Glasfibergatan,59.2808036,18.0013698,Älvsjö
Stoff,Kafé,Klubbevägen,59.273582,17.9954645,Långsjö
Megagrillen,Restaurang & Snabbmat,Johan Skyttes Väg,59.278964,18.0084016,Älvsjö
Hökmossens kaffestuga,Restaurang & Snabbmat,Hökmossevägen,59.2919271,17.9951927,Västberga
Cafe Elektra,Kafé,Elektravägen,59.2943422,18.0090461,Västberga
IDS,Bensinmack,Upplagsvägen,59.2990961,18.0220276,Västberga
Bakstugan i Västertorp,Kafé,Vasaloppsvägen,59.294539,17.9668412,Västertorp
Shinto Restaurang,Restaurang & Snabbmat,Solberga Hagväg,59.279555,18.0086807,Älvsjö
Svenska Hamburgerköket,Restaurang & Snabbmat,Tellusborgsvägen,59.3001133,18.0039844,Midsommarkransen
Kronans Apotek,Apotek,Västbergavägen,59.2935847,18.0048911,Västberga
Indian Garden,Restaurang & Snabbmat,Sjövikstorget,59.3079045,18.0286974,Liljeholmen
Sushi Ureshii,Restaurang & Snabbmat,Sedelvägen,59.296068,17.9823624,Hägerstensåsen
Staffans trafikskola,Trafikskola,Långbrodalsvägen,59.2799024,18.0011743,Liseberg
Parma Kök & Bar,Restaurang & Snabbmat,Fruängstorget,59.2857916,17.96335,Fruängen
Segeltorps trafikskola,Trafikskola,Gamla Södertäljevägen,59.2836671,17.9573967,Fruängen
Chong Qing,Restaurang & Snabbmat,Liljeholmsvägen,59.3128576,18.028359,Liljeholmen
Chamsin Grill,Restaurang & Snabbmat,Liljeholmsvägen,59.3128175,18.0281034,Liljeholmen
Vivels,Kafé,Älvsjö Torg,59.2790794,18.0093028,Älvsjö
JM Movement,Fysioterapeut,Örby Slottsväg,59.2807721,18.0328046,Örby slott
Älvsjö Öron-näsa-hals,Vårdcentral,Johan Skyttes Väg,59.278468,18.0069728,Älvsjö
Butsaya,Restaurang & Snabbmat,Midsommargränd,59.2990374,18.0034908,Västberga
Snabb & Lugn Café,Kafé,Älvsjö Stationsgata,59.2784904,18.0108359,Älvsjö
Lius kök,Restaurang & Snabbmat,Vantörsvägen,59.2862001,17.9531322,Fruängen
Fitness24Seven,Gym/Utomhusgym,Johan Skyttes Väg,59.2787812,18.0080853,Älvsjö
Lekplats,Lekplats,Hägerstensvägen,59.3010494,17.9565868,Mälarhöjden
Utegym,Gym/Utomhusgym,Älvsjöskogens elljusspår,59.2709035,17.9947649,Långsjö
Spiskroken,Restaurang & Snabbmat,Västbergavägen,59.2928504,18.0082976,Västberga
Älvsjö Tandläkaren,Tandläkare,Johan Skyttes Väg,59.2780057,18.0059938,Liseberg
Mejram,Restaurang & Snabbmat,Karusellplan,59.2981398,18.0105611,Västberga
Asian Garden,Restaurang & Snabbmat,Karusellplan,59.2980092,18.0104411,Västberga
Istanbul Kolgrill,Restaurang & Snabbmat,Västberga gårdsväg,59.2915406,18.012289,Västberga
Västbergakällan,Restaurang & Snabbmat,Drivhjulsvägen,59.2959258,18.0176833,Västberga
Västberga Grillen,Restaurang & Snabbmat,Vretensborgsvägen,59.299127,18.0160865,Västberga
Nancys Freshfood,Restaurang & Snabbmat,Vretensborgsvägen,59.2985196,18.0146522,Västberga
ST1,Bensinmack,Vasaloppsvägen,59.2966942,17.973784,Västertorp
R Han Thai Take Away,Restaurang & Snabbmat,Safirgränd,59.2918739,17.99975,Solberga
WKB Västberga,Restaurang & Snabbmat,Västberga Allé,59.293817,18.0111796,Västberga
Erik's,Restaurang & Snabbmat,Sjöviksbacken,59.3045093,18.0304702,Liljeholmen
The meeting bar & restaurant,Restaurang & Snabbmat,Hägerstensvägen,59.3050438,17.9921902,Aspudden
Tokai sushi,Restaurang & Snabbmat,Tellusgången,59.2987356,17.990757,Midsommarkransen
Restaurang & Snabbmat,Restaurang & Snabbmat,Störtloppsvägen,59.2919715,17.9684317,Västertorp
La Favorita,Restaurang & Snabbmat,Bäckvägen,59.3016611,17.9883394,Hägerstensåsen
Il Forno di Fruängen,Restaurang & Snabbmat,Vantörsvägen,59.286271,17.9508633,Fruängen
Lekplats,Lekplats,Piruettvägen,59.2936135,17.9785679,Hägerstensåsen
GAIA,Restaurang & Snabbmat,Vattenledningsvägen,59.3024341,18.0086666,Midsommarkransen
Lekplats,Lekplats,Västertorpsvägen,59.2910324,17.97352,Västertorp
Lekplats,Lekplats,Skridskovägen,59.2929672,17.9759926,Västertorp
Lekplats,Lekplats,Skridskovägen,59.2927575,17.974138,Västertorp
Pizza Örnsberg,Restaurang & Snabbmat,Junkergatan,59.3059603,17.9915981,Aspudden
Hägerstens tandvårdsteam,Tandläkare,Sparbanksvägen,59.2975127,17.9826565,Hägerstensåsen
Verkets Matsal,Restaurang & Snabbmat,Näbbskostigen,59.2895192,18.0159371,Västberga
Rain,Restaurang & Snabbmat,Tellusborgsvägen,59.2994428,18.0034208,Midsommarkransen
Ica Nära Älvsjö,Matbutik,Svartlösavägen,59.2726121,17.9779185,Långsjö
Lycka Thai & Sushi,Restaurang & Snabbmat,Snöripsvägen,59.2729767,17.9777737,Långsjö
Thanita's Thai,Restaurang & Snabbmat,Bäckvägen,59.3012951,17.9865035,Hägerstensåsen
Kafé,Kafé,Personnevägen,59.2980588,17.9760594,Hägersten
Kronans Apotek,Apotek,Älvsjökopplet,59.2750688,18.0130154,Liseberg
Puls och Träning,Gym/Utomhusgym,Sjöviksbacken,59.3061169,18.031891,Liljeholmen
itrim,Gym/Utomhusgym,Liljeholmsvägen,59.3126201,18.0261071,Liljeholmen
Apoteket,Apotek,Älvsjö Torg,59.2785746,18.0090219,Älvsjö
Lekplats,Lekplats,Toffelbacken,59.286065,18.01502,Solberga
Hinode Wok,Restaurang & Snabbmat,Älvsjö Torg,59.2786381,18.0093297,Älvsjö
Systembolaget,Systembolag,Västbergavägen,59.2939589,18.0039519,Västberga
Krubb,Restaurang & Snabbmat,Telefonvägen,59.298455,17.9953077,Midsommarkransen
CASA del LAGO,Restaurang & Snabbmat,Strandängsstigen,59.2653194,17.9754574,Långsjö
Kafé,Kafé,Gårdstigen,59.2653765,17.9753585,Långsjö
Lekplats,Lekplats,Långsjövägen,59.2689866,17.9699271,Långsjö
Herrängens gård,Kafé,Segeltorpsvägen,59.273165,17.9608766,Älvsjö
Subway,Restaurang & Snabbmat,Älvsjö Torg,59.2786951,18.0094843,Älvsjö
Wild Flower Bakehouse Café,Kafé,Kransbindarvägen,59.3024732,18.001802,Midsommarkransen
Jarla Trafikskola,Trafikskola,Johan Skyttes Väg,59.278502,18.0080988,Älvsjö
Stenugnsbröd På Söder,Kafé,Svandammsvägen,59.3014783,18.0130327,Midsommarkransen
Pizza,Restaurang & Snabbmat,Aklejavägen,59.2772451,17.9660733,Älvsjö
Lekplats,Lekplats,Kristallvägen,59.2877577,18.0013176,Solberga
Island Hoppers,Restaurang & Snabbmat,Instrumentvägen,59.3055572,17.9826465,Hägersten
Pepe Rosso,Restaurang & Snabbmat,Älvsjövägen,59.2777849,18.0060419,Liseberg
Grappolo D'uva,Restaurang & Snabbmat,Älvsjö Torg,59.2787636,18.0086926,Älvsjö
Fitness24Seven,Gym/Utomhusgym,Älvsjö Broväg,59.2760792,18.0139633,Liseberg
Thelins,Kafé,Johan Skyttes Väg,59.2787234,18.008594,Älvsjö
WRAP'Z,Restaurang & Snabbmat,Svandammsvägen,59.3018326,18.015297,Midsommarkransen
Rosteriet,Kafé,Rosterigränd,59.3119336,18.0239912,Liljeholmen
Marrakech Resturang,Restaurang & Snabbmat,Årstaängsvägen,59.3096235,18.030495,Liljeholmen
Via loreto,Restaurang & Snabbmat,Årstaängsvägen,59.3095015,18.0283179,Liljeholmen
Let's Eat Sushi,Restaurang & Snabbmat,Sjöviksvägen,59.3082152,18.0270286,Liljeholmen
MGL Sushi,Restaurang & Snabbmat,Fredsborgstorget,59.3072681,18.0268205,Liljeholmen
Tant Maja och Fröken Emilia,Kafé,Marieviksgatan,59.3081333,18.0272421,Liljeholmen
Blockriket,Lekplats,Sjöviksvägen,59.3048279,18.0358318,Liljeholmen
Sjöviks pizza & kebab,Restaurang & Snabbmat,Grönbrinksgatan,59.3070687,18.0292022,Liljeholmen
Haandi,Restaurang & Snabbmat,Sjöviksvägen,59.3064883,18.0322898,Liljeholmen
Vår Pizza,Restaurang & Snabbmat,Erik Segersälls Väg,59.3059146,18.0011339,Aspudden
Pizzabagaren,Restaurang & Snabbmat,Tellusborgsvägen,59.298133,18.0025128,Västberga
Hanami Hawaiian Poké & Sushi,Restaurang & Snabbmat,Sjöviksvägen,59.3060444,18.0325963,Liljeholmen
Lilla Paradiset,Restaurang & Snabbmat,Örnsbergsvägen,59.3055597,17.9890185,Aspudden
Apoteket,Apotek,Axelsbergs Torg,59.304169,17.9748559,Hägersten
ICA Supermarket Telefonplan,Matbutik,Tellusborgsvägen,59.2966808,18.0014892,Västberga
Brödernas,Restaurang & Snabbmat,Sjövikskajen,59.3066191,18.0334682,Liljeholmen
Strong body & mind,Gym/Utomhusgym,Sjöviksvägen,59.3053163,18.0358886,Liljeholmen
Café Cul-De-Sac,Kafé,Lusuddsvägen,59.316319,18.0163716,Gröndal
Del Mare,Restaurang & Snabbmat,Nybohovsbacken,59.3090971,18.0155531,Liljeholmen
Fitness24Seven,Gym/Utomhusgym,Fruängsgången,59.2855188,17.9646495,Fruängen
Systembolaget,Systembolag,Nybohovsbacken,59.3094674,18.0214651,Liljeholmen
Lekplats,Lekplats,Störtloppsvägen,59.295542,17.9655927,Västertorp
Biocafé Tellus,Kafé,Vattenledningsvägen,59.3019499,18.0075039,Midsommarkransen
Thaimat Take Away,Restaurang & Snabbmat,Slättgårdsvägen,59.3007035,17.957103,Mälarhöjden
Bakom hörnet,Restaurang & Snabbmat,Midsommarvägen,59.299527,18.0053741,Midsommarkransen
Masahiro,Restaurang & Snabbmat,Tellusborgsvägen,59.2982973,18.0026717,Västberga
Lekplats,Lekplats,Pingstvägen,59.3012522,17.9939547,Midsommarkransen
Bonne Femme,Kafé,Erik Segersälls Väg,59.3062326,18.0008701,Aspudden
Saigon House,Restaurang & Snabbmat,Hägerstensvägen,59.3056332,17.9983257,Aspudden
Körkortshuset,Trafikskola,Nybohovsbacken,59.3099318,18.0250845,Liljeholmen
Liljeholmens bilskola,Trafikskola,Liljeholmstorget,59.3105393,18.0221584,Liljeholmen
Sushi by Rino,Restaurang & Snabbmat,Svartlösavägen,59.2842313,17.9855051,Älvsjö
Lekplats,Lekplats,Långbrovägen,59.2788513,17.9941093,Älvsjö
Parkfiken,Kafé,Torsten Almsstigen,59.3076579,17.9949017,Aspudden
Prepp,Kafé,Årstaängsvägen,59.310603,18.0297263,Liljeholmen
Furellios Ristorante,Restaurang & Snabbmat,Nyårsvägen,59.3025113,17.994733,Midsommarkransen
Bonne Femme Stenungsbageri,Kafé,Midsommarvägen,59.2995714,18.0041699,Midsommarkransen
Xi'an Köket,Restaurang & Snabbmat,Bäckvägen,59.3024092,17.994269,Midsommarkransen
Lekplats,Lekplats,Typografvägen,59.3032597,17.9905437,Hägersten
A.B.Café,Kafé,Valborgsmässovägen,59.2995931,17.998632,Midsommarkransen
NIDa Catering och festvåning,Restaurang & Snabbmat,Marieviksgatan,59.3100886,18.03051,Liljeholmen
STC,Gym/Utomhusgym,Ingenjörsvägen,59.3063503,18.0256674,Liljeholmen
Texas Longhorn,Restaurang & Snabbmat,Götalandsvägen,59.2801143,18.00389,Älvsjö
800 Grader,Restaurang & Snabbmat,Cedergrensvägen,59.3034407,18.002799,Midsommarkransen
Distriktstandvården Liljeholmen,Tandläkare,Liljeholmstorget,59.309844,18.021877,Liljeholmen
Solbergaskogens utegym,Gym/Utomhusgym,Smaragdstigen,59.2853453,18.005873,Solberga
Teso Sushi,Restaurang & Snabbmat,Kabelverksgatan,59.2823244,18.0028619,Älvsjö
Oh Poké,Restaurang & Snabbmat,Älvsjö Stationsgata,59.2796169,18.0120045,Älvsjö
Solbrännans utegym,Gym/Utomhusgym,Apelsinstigen,59.2819949,18.0153827,Älvsjö
Systembolaget,Systembolag,Älvsjö Ängsväg,59.275255,18.0128234,Liseberg
Lubnan Kajen,Restaurang & Snabbmat,Sjövikskajen,59.3061152,18.0354217,Liljeholmen
SATS Liljeholmstorget,Gym/Utomhusgym,Liljeholmstorget,59.309834,18.022026,Liljeholmen
Bastard Burgers,Restaurang & Snabbmat,Liljeholmstorget,59.309643,18.0224993,Liljeholmen
Slow Hands,Kafé,Sedelvägen,59.2952723,17.9796325,Hägerstensåsen
Thailaan,Matbutik,Nybohovsbacken,59.3093456,18.0214941,Liljeholmen
Veloce Pizza,Restaurang & Snabbmat,Kabelverksgatan,59.2820466,18.002632,Älvsjö
Sushi Yama,Restaurang & Snabbmat,Liljeholmstorget,59.3095845,18.0218108,Liljeholmen
Bio Aspen,Biograf,Hägerstensvägen,59.3060441,18.0066425,Aspudden
TOVE,Restaurang & Snabbmat,Sjöviksbacken,59.3049772,18.030666,Liljeholmen
STC,Gym/Utomhusgym,Västbergavägen,59.2938492,18.0041601,Västberga
Coop Svandammsplan,Matbutik,Pingstvägen,59.3010865,18.0032136,Midsommarkransen
STC,Gym/Utomhusgym,Örnsbergsvägen,59.3052207,17.9890893,Aspudden
Studio Mimundo,,Kabelverksgatan,59.2826737,18.0007297,Älvsjö
Gym/Utomhusgym,Gym/Utomhusgym,Doktor Widerströms Gata,59.2881437,17.9585985,Fruängen
Gym/Utomhusgym,Gym/Utomhusgym,Vantörsvägen,59.282748,17.9632351,Fruängen
Apotek Hjärtat,Apotek,Fruängsgången,59.2855373,17.9641768,Fruängen
Circle K,Bensinmack,Varuvägen,59.2718312,18.0095316,Älvsjö
Gym/Utomhusgym,Gym/Utomhusgym,Sedelvägen,59.2979322,17.9864008,Hägerstensåsen
Älvsjö Centrum Vårdcentral,Vårdcentral,Älvsjö Stationsgata,59.2780408,18.0085476,Älvsjö
Midoris,Restaurang & Snabbmat,Sjövikskajen,59.3058102,18.0367235,Liljeholmen
Thai Wok Orkidé,Restaurang & Snabbmat,Bäckvägen,59.3022428,17.9935758,Midsommarkransen
Gymmet,Gym/Utomhusgym,Årsta Hamnväg,59.3084472,18.0268805,Liljeholmen
Ponte & Simone,Restaurang & Snabbmat,Sjövikskajen,59.3060783,18.0356973,Liljeholmen
3Sixty,Restaurang & Snabbmat,Sjövikskajen,59.3061695,18.0351583,Liljeholmen
Färgfabrikens Kafé,Restaurang & Snabbmat,Lövholmsbrinken,59.3153217,18.0193396,Liljeholmen
STC,Gym/Utomhusgym,Johan Skyttes Väg,59.2778284,18.0031991,Liseberg
Konstfack bibliotek,Bibliotek,LM Ericssons Väg,59.2998873,17.9941863,Midsommarkransen
Pizzeria Delize,Restaurang & Snabbmat,Skridskovägen,59.2939651,17.9768288,Västertorp
Piatto Fresco,Restaurang & Snabbmat,Årsta Skolgränd,59.3015269,18.0297314,Liljeholmen
Lulu,Restaurang & Snabbmat,Tellusborgsvägen,59.2979966,18.0023627,Västberga
Skin Team,Vårdcentral,Fruängsgatan,59.2846062,17.9604355,Fruängen
My Favorit Grill,Restaurang & Snabbmat,Doktor Widerströms Gata,59.2853426,17.95617,Fruängen
Fruängens Trafikskola,Trafikskola,Fruängsgatan,59.284921,17.961645,Fruängen
Sushi & Poke,Restaurang & Snabbmat,Vantörsvägen,59.2861904,17.9532279,Fruängen
Il Forno,Restaurang & Snabbmat,Vantörsvägen,59.2863117,17.9507629,Fruängen
STC,Gym/Utomhusgym,Vantörsvägen,59.2864995,17.9537332,Fruängen
Grill&Wok Stugan,Restaurang & Snabbmat,Varuvägen,59.2717762,18.0071086,Älvsjö
Sushi Kawa,Restaurang & Snabbmat,Fruängstorget,59.2858028,17.9638267,Fruängen
Nordic Wellness,Gym/Utomhusgym,Elsa Brändströms Gata,59.2868351,17.9640998,Fruängen
Fruängens Tandläkare,Tandläkare,Elsa Brändströms Gata,59.2884181,17.9629296,Fruängen
Fruängstandläkarna,Tandläkare,Elsa Brändströms Gata,59.2882672,17.9630587,Fruängen
Fruängens Familjetandvård,Tandläkare,Hanna Paulis Gata,59.2867241,17.9635245,Fruängen
Babas,Restaurang & Snabbmat,Fruängstorget,59.2857997,17.9639333,Fruängen
Fruängen Dental,Tandläkare,Fruängsgången,59.285451,17.9637336,Fruängen
Home Food,Restaurang & Snabbmat,Fruängsplan,59.2859601,17.9652138,Fruängen
Folktandvården,Tandläkare,Västertorpsplan,59.2925671,17.9689012,Västertorp
Surdegspizza,Restaurang & Snabbmat,Vasaloppsvägen,59.2937752,17.9655439,Västertorp
Västertorps Hjärta,Restaurang & Snabbmat,Störtloppsvägen,59.2936722,17.9672747,Västertorp
Vår Pizza,Restaurang & Snabbmat,Västertorpsplan,59.2924658,17.9689861,Västertorp
Samtal Dental,Tandläkare,Jordkabelgatan,59.2822406,18.0020749,Älvsjö
Goal Vision Dream,Gym/Utomhusgym,Kabelverksgatan,59.282684,18.0013459,Älvsjö
Maritza Fixar,Vårdcentral,Götalandsvägen,59.2802531,18.0130392,Älvsjö
Älvsjö Tandvård,Tandläkare,Prästgårdsgränd,59.280285,18.0112353,Älvsjö
STC,Gym/Utomhusgym,Götalandsvägen,59.279558,18.0106482,Älvsjö
The Garden,Restaurang & Snabbmat,Mässvägen,59.2767476,18.0113337,Liseberg
Ichiban,Restaurang & Snabbmat,Skridskovägen,59.2940655,17.9767838,Västertorp
Axelsbergs Tandläkarna,Tandläkare,Selmedalsvägen,59.3046899,17.9740205,Hägersten
Cachay,Kafé,Skridskovägen,59.2940156,17.976807,Västertorp
Tang Ji,Restaurang & Snabbmat,Axelsbergs Torg,59.3042013,17.9748353,Hägersten
Tandläkare,Tandläkare,Hägerstensvägen,59.3009479,17.9580862,Hägersten
Brödernas,Restaurang & Snabbmat,Brådstupsvägen,59.3041131,17.9589797,Hägersten
Catarina,Restaurang & Snabbmat,Sparbanksvägen,59.2951096,17.9838697,Hägerstensåsen
Topoli,Restaurang & Snabbmat,Korpmossevägen,59.2910859,17.9904856,Västberga
Holy Kebab,Restaurang & Snabbmat,Telefonplan,59.2990773,17.9955577,Midsommarkransen
Texas Longhorn,Restaurang & Snabbmat,Telefonplan,59.2990535,17.9950864,Midsommarkransen
Brödernas,Restaurang & Snabbmat,LM Ericssons Väg,59.2990343,17.9952838,Midsommarkransen
Gigis Hörna,Restaurang & Snabbmat,Tellusgången,59.2987978,17.9896584,Midsommarkransen
Nataljas Medicinska Fotvård,Vårdcentral,Midsommarvägen,59.2995544,18.0046911,Midsommarkransen
Skog,Gym/Utomhusgym,Tellusborgsvägen,59.2992941,18.0038141,Västberga
Mitt Gym,Gym/Utomhusgym,Tellusborgsvägen,59.2987718,18.0020897,Västberga
stc,Gym/Utomhusgym,Midsommargränd,59.2989891,18.0036417,Västberga
Noli Deli,Restaurang & Snabbmat,Midsommarparken,59.3012561,18.0120163,Midsommarkransen
Målarverkstadens Bistro,Kafé,Hägerstensvägen,59.3054014,17.9937227,Aspudden
Thurson & Engquist,Tandläkare,Botvidsgatan,59.3060239,17.9982697,Aspudden
Bara Yoga,Gym/Utomhusgym,Schlytersvägen,59.3067148,18.0003357,Aspudden
STC,Gym/Utomhusgym,Klacktorget,59.2868632,18.0099703,Solberga
Lokanta,Restaurang & Snabbmat,Kristalltorget,59.2899188,17.9989496,Solberga
Restaurang & Snabbmat,Restaurang & Snabbmat,Kristalltorget,59.290128,17.9996432,Solberga
Tandvård,Tandläkare,Örby Slottsväg,59.2802409,18.0337115,Örby slott
Hägerstens trafikskola,Trafikskola,Hägerstensvägen,59.3058983,18.0076915,Aspudden
Kim Ban Ban,Restaurang & Snabbmat,Nybohovsbacken,59.3095202,18.021603,Liljeholmen
Gym/Utomhusgym,Gym/Utomhusgym,Tellusborgsvägen,59.3004082,18.0045074,Midsommarkransen
Johan Skytteskolans utegym,Gym/Utomhusgym,Västerängsvägen,59.277314,17.9829224,Älvsjö
Dentalisterna,Tandläkare,Liljeholmsvägen,59.3118095,18.024004,Liljeholmen
Thelins konditori,Kafé,Gröndalsvägen,59.3154302,18.0013803,Gröndal
Beirut Lounge,Restaurang & Snabbmat,Fruängstorget,59.2857974,17.9640318,Fruängen
Café Nero,Kafé,Liljeholmstorget,59.3097814,18.022905,Liljeholmen
Il Forno,Restaurang & Snabbmat,Liljeholmstorget,59.309555,18.0220841,Liljeholmen
Kebab-ish,Restaurang & Snabbmat,Liljeholmstorget,59.3097263,18.022769,Liljeholmen
Naked fish,Restaurang & Snabbmat,Fågeltorget,59.3055101,17.9931902,Aspudden
La Casa de Planka,Restaurang & Snabbmat,Klockhusgränd,59.2810236,18.0003712,Liseberg
Magic Masala,Restaurang & Snabbmat,Nioörtsvägen,59.3015599,18.016121,Midsommarkransen
Midsommarkransens trafikskola,Trafikskola,Tegelbruksvägen,59.3025534,18.014335,Midsommarkransen
Smash N Grab,Restaurang & Snabbmat,Fredsborgsgatan,59.3059707,18.0303074,Liljeholmen
Kringelgården Kransen,Kafé,Radiusbacken,59.2985575,18.0029163,Västberga
Lisebergs vårdcentral,Vårdcentral,Annebodavägen,59.2848365,18.0303853,Älvsjö
Lekplats,Lekplats,Pingstvägen,59.301087,17.9937606,Midsommarkransen
Lugnet,Lekplats,Terrängvägen,59.2942412,17.9700555,Västertorp
Kristallparken,Lekplats,Sulvägen,59.2871487,18.0034603,Solberga
Lekplats,Lekplats,Elsa Borgs Gata,59.2828065,17.9659617,Fruängen
Lekplatsen Solhatten,Lekplats,Elsa Borgs Gata,59.283478,17.9673044,Fruängen
Lekplats,Lekplats,Fruängsgatan,59.284193,17.9681413,Fruängen
Lekplats,Lekplats,Lina Sandells Plan,59.2837588,17.9601189,Fruängen
Lekplats,Lekplats,Lina Sandells Plan,59.2845656,17.9610146,Fruängen
Pizzeria Lugano,Restaurang & Snabbmat,Fredrika Bremers Gata,59.2835794,17.970829,Fruängen
Lekplats,Lekplats,Elin Wägners Gata,59.2852541,17.9726617,Fruängen
Lekplats,Lekplats,Elin Wägners Gata,59.2859825,17.9710023,Fruängen
Lekplats,Lekplats,Elin Wägners Gata,59.2844173,17.9718698,Fruängen
Lekplats,Lekplats,Ellen Keys Gata,59.2882191,17.9662852,Fruängen
Lekplats,Lekplats,Fredrika Bremers Gata,59.2871324,17.9714389,Fruängen
Lekplats,Lekplats,Hanna Paulis Gata,59.2876557,17.9618021,Fruängen
Lekplats,Lekplats,Hanna Paulis Gata,59.2867196,17.9629663,Fruängen
Lekplats,Lekplats,Hanna Paulis Gata,59.2871711,17.9619961,Fruängen
Parkleken Vippan,Lekplats,Elin Wägners Gata,59.2868424,17.9696987,Fruängen
Lekplats,Lekplats,Eva Bonniers Gata,59.2856931,17.9605601,Fruängen
Lekplats,Lekplats,Doktor Widerströms Gata,59.2850186,17.9588585,Fruängen
Hamburgarprinsen,Restaurang & Snabbmat,Doktor Widerströms Gata,59.2853476,17.9561503,Fruängen
Lekplats,Lekplats,Doktor Widerströms Gata,59.2871093,17.9581462,Fruängen
Lekplats,Lekplats,Doktor Widerströms Gata,59.2864981,17.9574888,Fruängen
Storhagen,Lekplats,Herrängsvägen,59.2754336,17.9612046,Älvsjö
Fruktparken,Lekplats,Liljeholmsgränd,59.3110715,18.022184,Liljeholmen
Tre kungars lund,Lekplats,Tre kungars lund,59.284972,18.0237632,Älvsjö
Lidl,Matbutik,Elisabeth Tamms Gata,59.285627,17.9544506,Fruängen
Coop Mälarhöjden,Matbutik,Hägerstensvägen,59.3013291,17.9573872,Hägersten
Lekplats,Lekplats,Fem Fålars Brunn,59.2847863,18.0268878,Älvsjö
Lekplats,Lekplats,Mickelsbergsvägen,59.2866784,17.975077,Fruängen
Långbro värdshus,Restaurang & Snabbmat,Stora Mans väg,59.282823,17.9708426,Älvsjö
Arkenparken,Lekplats,Torsslowsbacken,59.3062412,17.9769444,Hägersten
Lekplats,Lekplats,Mästarbacken,59.2981977,17.9431737,Mälarhöjden
Johannisdalsparken,Lekplats,Sankt Mickelsgatan,59.2964066,17.957966,Mälarhöjden
Pandaparken,Lekplats,Nybohovsgränd,59.3076543,18.0177308,Liljeholmen
Schlytersparken,Lekplats,Schlytersvägen,59.3067827,18.0073509,Aspudden
Parklek Sjörövarparken,Lekplats,Smaragdstigen,59.2814003,18.008867,Solberga
Apelsinen,Lekplats,Apelsinstigen,59.2839465,18.0145002,Solberga
Lekplats,Lekplats,Pilgrimsvägen,59.3051419,18.0026426,Aspudden
Lekplats,Lekplats,Näbbskostigen,59.2883133,18.014647,Solberga
Gunnars Pizzeria,Restaurang & Snabbmat,Herrängsvägen,59.2757484,17.9612266,Älvsjö
Klämman,Lekplats,Sylvestergatan,59.2864615,18.0287083,Älvsjö
Park Folkets Hus,Biograf,Götalandsvägen,59.2831582,18.0272566,Liseberg
Eolshälls 4 H-gård,Kafé,Eolshällsvägen,59.3078856,17.9694819,Hägersten
Lekplats,Lekplats,Ekensbergsvägen,59.3156447,17.9932308,Gröndal
Lekplats,Lekplats,Gröndalsvägen,59.3153829,18.0092357,Gröndal
Lekplats,Lekplats,Örnbacken,59.30927,17.9876444,Aspudden
Lekplats,Lekplats,Selmedalsvägen,59.3049254,17.9733691,Hägersten
Lekplats,Lekplats,Selmedalsvägen,59.3047878,17.9700238,Hägersten
Lekplats,Lekplats,Selmedalsvägen,59.3048481,17.9711576,Hägersten
Lekplats,Lekplats,Selmedalsvägen,59.3048825,17.9722869,Hägersten
Lekplats,Lekplats,Gröndalsvägen,59.3165046,18.0116344,Gröndal
Lekplats,Lekplats,Ekensbergsvägen,59.3161037,17.9924057,Gröndal
Lekplats,Lekplats,Juvelerarvägen,59.2879036,17.9934344,Solberga
Lekplats,Lekplats,Smyckegränd,59.2863928,17.9960799,Solberga
Lekplats,Lekplats,Korpmossevägen,59.2947442,17.9896157,Västberga
Lekplats,Lekplats,Fregattvägen,59.312684,18.0007917,Gröndal
Lekplats,Lekplats,Hövdingagatan,59.3068798,17.9918246,Aspudden
Lekplats,Lekplats,Botvidsgatan,59.3062938,17.9992611,Aspudden
Lekplats,Lekplats,Hägerstensvägen,59.3054169,17.9914834,Aspudden
Lekplats,Lekplats,Hägerstensvägen,59.3052971,17.9901362,Aspudden
Lekplats,Lekplats,Hägerstensvägen,59.3053371,17.990788,Aspudden
Lekplats,Lekplats,Örnsbergsvägen,59.3057595,17.9890531,Aspudden
Lekplats,Lekplats,Mellanbergsvägen,59.2910102,17.9896217,Västberga
Lekplats,Lekplats,Räfsestigen,59.2857402,17.9818039,Älvsjö
Lekplats,Lekplats,Karossvägen,59.2859727,17.981471,Älvsjö
Daisy's express,Restaurang & Snabbmat,Elektravägen,59.2952544,18.0109716,Västberga
Café Uddvillan,Kafé,Klubbensborgsvägen,59.3076706,17.9584891,Hägersten
Lekplats,Lekplats,Skidskyttevägen,59.2910129,17.9712767,Västertorp
Lekplats,Lekplats,Sigfridsvägen,59.3089453,18.0063838,Aspudden
Lekplats,Lekplats,Örnbacken,59.3095221,17.9900789,Aspudden
Lekplats,Lekplats,Ekensbergsvägen,59.3147349,17.9899842,Gröndal
Båtparken,Lekplats,Sedelvägen,59.2952972,17.9817846,Hägerstensåsen
Lekplats,Lekplats,Dymlingsgränd,59.290627,17.9862774,Hägerstensåsen
Lekplats,Lekplats,Tomträttsvägen,59.2941919,17.9833147,Hägerstensåsen
Lekplats,Lekplats,Gröndalsvägen,59.3141693,17.9905113,Gröndal
Gym/Utomhusgym,Gym/Utomhusgym,Älvsjöskogens elljusspår,59.2650237,17.9966321,Långsjö
Lekplats,Lekplats,Gösta Ekmans väg,59.3028637,17.9818054,Hägersten
Långbro bakficka,Kafé,Stora Kvinns Väg,59.2818034,17.9715299,Älvsjö
Lekplats,Lekplats,Korpmossevägen,59.292797,17.9894293,Västberga
Lekplats,Lekplats,Gösta Ekmans väg,59.3034228,17.9845761,Hägersten
Lekplats,Lekplats,Piruettvägen,59.2935954,17.9785477,Hägerstensåsen
Lekplats,Lekplats,Hägerstensvägen,59.3056737,17.9940364,Aspudden
Lekplats,Lekplats,Tordyvelvägen,59.276096,17.9845351,Älvsjö
Lekplats,Lekplats,Konvaljestigen,59.2758612,17.9704502,Älvsjö
Lekplats,Lekplats,Cedergrensvägen,59.3025709,18.0028615,Midsommarkransen
Gym/Utomhusgym,Gym/Utomhusgym,Personnevägen,59.2912146,17.9814735,Hägerstensåsen
Lekplats,Lekplats,Dansbanevägen,59.2955151,18.0091991,Västberga
Lekplats,Lekplats,Elektravägen,59.2952243,18.0088472,Västberga
Lekplats,Lekplats,Elektravägen,59.2947361,18.0084906,Västberga
Tågparken,Lekplats,Midsommarparken,59.3010938,18.0124815,Midsommarkransen
Lekplats,Lekplats,Aspuddsstigen,59.3083414,17.9951682,Aspudden
Lekplats,Lekplats,Aspuddsstigen,59.3086413,17.9958374,Aspudden
Lekplats,Lekplats,Torsten Almsstigen,59.3085675,17.9942743,Aspudden
Lekplats,Lekplats,Örnbacken,59.3093412,17.9885182,Aspudden
Lekplats,Lekplats,Torsten Alms Gata,59.3091886,17.9862516,Aspudden
Lekplats,Lekplats,Sigurd Rings Gata,59.3093829,17.9928607,Aspudden
Lekplats,Lekplats,Hägerstensvägen,59.3040874,17.9826483,Hägersten
Lekplats,Lekplats,Gösta Ekmans väg,59.3034249,17.9796788,Hägersten
Lekplats,Lekplats,Terrängvägen,59.2940854,17.9693965,Västertorp
Lekplats,Lekplats,Terrängvägen,59.2943289,17.9701766,Västertorp
Lekplats,Lekplats,Terrängvägen,59.2939612,17.9700842,Västertorp
Lekplats,Lekplats,Standarvägen,59.2765852,18.0036235,Liseberg
Lekplats,Lekplats,Styrbjörnsvägen,59.3099007,18.0005078,Aspudden
Lekplats,Lekplats,Nybodaringen,59.3048544,18.0256745,Liljeholmen
Lekplats,Lekplats,Nybodaringen,59.304753,18.024029,Liljeholmen
Lekplats,Lekplats,Trekantsstranden,59.3136884,18.0161082,Liljeholmen
Lekplats,Lekplats,Hildebergsvägen,59.3028169,18.0283699,Liljeholmen
Lekplats,Lekplats,Klensmedsvägen,59.2952499,17.9986178,Västberga
Lekplats,Lekplats,Ellen Fries Gata,59.2882923,17.9716815,Fruängen
Lekplats,Lekplats,Elsa Brändströms Gata,59.2879084,17.9774308,Fruängen
Lekplats,Lekplats,Elsa Brändströms Gata,59.2879344,17.9734759,Fruängen
Lekplats,Lekplats,Backvindeln,59.297713,17.946049,Mälarhöjden
Lekplats,Lekplats,Backvindeln,59.2982176,17.9476918,Mälarhöjden
Lekplats,Lekplats,Hildebergsvägen,59.3038312,18.0278501,Liljeholmen
Lekplats,Lekplats,Sturehillsvägen,59.3035153,18.0318319,Liljeholmen
Lekplats,Lekplats,Sjöviksbacken,59.3045217,18.0288372,Liljeholmen
Lekplats,Lekplats,Nybohovsbacken,59.3072373,18.0149026,Liljeholmen
Lekplats,Lekplats,Nybohovsbacken,59.3094402,18.0136908,Liljeholmen
Lekplats,Lekplats,Sjöviksvägen,59.305502,18.0373301,Liljeholmen
Lekplats,Lekplats,Terrängvägen,59.2920811,17.9634116,Västertorp
Lekplats,Lekplats,Terrängvägen,59.2915282,17.9647205,Västertorp
Lekplats,Lekplats,Terrängvägen,59.2923007,17.9646263,Västertorp
Lekplats,Lekplats,Domargränd,59.2921334,17.9667836,Västertorp
Lekplats,Lekplats,Vasaloppsvägen,59.2936644,17.9661966,Västertorp
Lekplats,Lekplats,,59.2935138,17.9633416,Västertorp
Lekplats,Lekplats,Vasaloppsvägen,59.2927394,17.9624268,Västertorp
Lekplats,Lekplats,Isgränd,59.291388,17.9680901,Västertorp
Lekplats,Lekplats,Västertorpsvägen,59.2905198,17.9684915,Västertorp
Lekplats,Lekplats,Klensmedsvägen,59.2951395,17.9995557,Västberga
Lekplats,Lekplats,Sturehillsvägen,59.3026556,18.0308653,Liljeholmen
Lekplats,Lekplats,Fregattvägen,59.3129195,18.0010809,Gröndal
Lekplats,Lekplats,Nybodaringen,59.3049968,18.0255274,Liljeholmen
Lekplats,Lekplats,Årsta Skolgränd,59.302216,18.031414,Liljeholmen
Lekplats,Lekplats,Sjöviksbacken,59.3047207,18.0301015,Liljeholmen
Lekplats,Lekplats,Sannadalsvägen,59.3146938,18.0132614,Gröndal
Lekplats,Lekplats,Ljusstöparbacken,59.3141886,18.0107816,Gröndal
Mastparken,Lekplats,Bryggvägen,59.3158526,17.9982854,Gröndal
Sannadalsparkens utegym,Gym/Utomhusgym,Gröndalsvägen,59.3150089,18.0085257,Gröndal
Lekplats,Lekplats,Gröndalsvägen,59.3150309,17.9861643,Gröndal
Liljeholmens utegym,Gym/Utomhusgym,Liljeholmsgränd,59.3106174,18.0205876,Liljeholmen
Lekplats,Lekplats,Gröndalsvägen,59.3152632,17.9894619,Gröndal
Lekplats,Lekplats,Gröndalsvägen,59.3152142,17.9885647,Gröndal
Lekplats,Lekplats,Svartlösavägen,59.2737193,17.9776202,Älvsjö
Fågelparken,Lekplats,Aspuddsstigen,59.3080827,17.9841934,Aspudden
Lekplats,Lekplats,Mästarbacken,59.2986681,17.9437829,Mälarhöjden
Lekplats,Lekplats,Sturehillsvägen,59.3027555,18.0315241,Liljeholmen
Lekplats,Lekplats,Sjövikstorget,59.307854,18.029127,Liljeholmen
Blixtparken,Lekplats,Nybohovsbacken,59.309063,18.0179701,Liljeholmen
Lekplats,Lekplats,Oktobergatan,59.3016053,18.0058844,Midsommarkransen
Lekplats,Lekplats,Vattenledningsvägen,59.3006608,18.0050278,Midsommarkransen
Lekplats,Lekplats,Tellusborgsvägen,59.3015448,18.0054177,Midsommarkransen
Midsommarköket,Kafé,Tellusborgsvägen,59.3008355,18.004508,Midsommarkransen
Lekplats,Lekplats,Sylvestergatan,59.2874314,18.0276342,Älvsjö
Lekplats,Lekplats,Mälsåkersvägen,59.2805162,18.0286972,Örby slott
Lekplats,Lekplats,Rävsnäsvägen,59.2800356,18.0270507,Örby slott
Lekplats,Lekplats,Vattenledningsvägen,59.3022227,18.0079737,Midsommarkransen
Lekplats,Lekplats,Sjöviksvägen,59.305432,18.0365934,Liljeholmen
Lekplats,Lekplats,Sjöviksvägen,59.3056007,18.0368085,Liljeholmen
Utegym,Gym/Utomhusgym,Vinterviksvägen,59.3117506,18.0025198,Gröndal
Lekplatsen Ada Nilsson,Lekplats,Ada Nilssons gata,59.2844051,17.9560886,Fruängen
Lekplats,Lekplats,Ada Nilssons gata,59.2836804,17.9566138,Fruängen
Lekplats,Lekplats,Liljeholmsgränd,59.3110246,18.0225364,Liljeholmen
Lekplats,Lekplats,Cedergrensvägen,59.302719,18.002662,Midsommarkransen
Lekplats,Lekplats,Cedergrensvägen,59.3028075,18.0027238,Midsommarkransen
Lekplats,Lekplats,Cedergrensvägen,59.3028772,18.0028384,Midsommarkransen
Lekplats,Lekplats,Selmedalsringen,59.3069467,17.9792219,Hägersten
Lekplats,Lekplats,Katrinebergsbacken,59.3117019,18.0269593,Liljeholmen
Lekplats,Lekplats,Katrinebergsbacken,59.3115473,18.0263545,Liljeholmen
Lekplats,Lekplats,Glasbjörksvägen,59.278695,17.9801065,Älvsjö
Lekplats,Lekplats,Karin Boyes gata,59.2806896,17.9583986,Fruängen
Lekplats,Lekplats,Stövelvägen,59.2867138,18.0079936,Solberga
Lekplats,Lekplats,Herbariegränd,59.3032761,18.0168782,Liljeholmen
Lekplats,Lekplats,Telefonvägen,59.2994264,18.001098,Midsommarkransen
Lekplats,Lekplats,Personnevägen,59.2914217,17.9808894,Hägerstensåsen
Lekplats,Lekplats,Hultgränd,59.2824295,17.9751216,Älvsjö
Lekplats,Lekplats,Årstadalsinfarten,59.3076001,18.0259084,Liljeholmen
